time(millisecond),datetime(utc),latitude,longitude,height_above_takeoff(feet),height_above_ground_at_drone_location(feet),ground_elevation_at_drone_location(feet),altitude_above_seaLevel(feet),height_sonar(feet),speed(mph),distance(feet),satellites,gpslevel,voltage(v),max_altitude(feet),max_ascent(feet),max_speed(mph),max_distance(feet), xSpeed(mph), ySpeed(mph), zSpeed(mph), compass_heading(degrees), pitch(degrees), roll(degrees),isPhoto,isVideo,rc_elevator,rc_aileron,rc_throttle,rc_rudder,gimbal_heading(degrees),gimbal_pitch(degrees),battery_percent,voltageCell1,voltageCell2,voltageCell3,voltageCell4,voltageCell5,voltageCell6,current(A),battery_temperature(f),altitude(feet),ascent(feet),flycStateRaw,flycState,message
0,2021-01-16 18:15:25,36.1624187322794,-96.8360103477805,0,0,1038.1566779061,1038.1566779061,0,0,0,14,5,0,1038.1566779061,0,0,0,0,0,0,201.8, 3.1, -0.7,0,0,364,364,364,1684,0,0,98,4.318,4.322,4.319,4.318,4.321,4.315,0,54.32,1038.1566779061,0,41,Motors_Started,
100,2021-01-16 18:15:25,36.1624187550524,-96.8360103962373,0,0,1038.1566779061,1038.1566779061,0,0,0.0165156173264,14,5,0,1038.1566779061,0,0,0.0165156173264,0,0,0,202.1, 3.1, -0.7,0,0,364,364,364,1684,0,0,98,4.318,4.322,4.319,4.318,4.321,4.315,0,54.32,1038.1566779061,0,41,Motors_Started,
200,2021-01-16 18:15:25,36.1624187783782,-96.8360104529121,0,0,1038.1566779061,1038.1566779061,0,0,0.035240158608,14,5,0,1038.1566779061,0,0,0.035240158608,0,0,0,202.3, 3.1, -0.7,0,0,364,364,364,1684,0,0,98,4.318,4.322,4.319,4.318,4.321,4.315,0,54.32,1038.1566779061,0,41,Motors_Started,
300,2021-01-16 18:15:25,36.162418797593,-96.8360105180317,0,0,1038.1566779061,1038.1566779061,0,0,0.055522967656,14,5,0,1038.1566779061,0,0,0.055522967656,0,0,0,202.5, 3.1, -0.7,0,0,364,364,364,1684,0,0,98,4.318,4.322,4.319,4.318,4.321,4.315,0,54.32,1038.1566779061,0,41,Motors_Started,
400,2021-01-16 18:15:26,36.1624188532117,-96.8360105363313,0,0,1038.1566779061,1038.1566779061,0,0,0.070932416968,14,5,0,1038.1566779061,0,0,0.070932416968,0,0,0,202.7, 3.1, -0.7,0,0,364,364,364,1684,0,0,98,4.318,4.322,4.319,4.318,4.321,4.315,0,54.32,1038.1566779061,0,41,Motors_Started,Warning:Battery Temperature Below 15°C (59F). Warm battery to above 25°C (77F) before flying.
500,2021-01-16 18:15:26,36.1624188908866,-96.8360105762212,0,0,1038.1566779061,1038.1566779061,0,0,0.08875000284,14,5,0,1038.1566779061,0,0,0.08875000284,0,0,0,202.8, 3.1, -0.7,0,0,364,364,364,1684,0,0,98,4.318,4.322,4.319,4.318,4.321,4.315,0,54.32,1038.1566779061,0,41,Motors_Started,
600,2021-01-16 18:15:26,36.1624189168326,-96.8360106060388,0,0,1038.1566779061,1038.1566779061,0,0,0.101591866768,14,5,0,1038.1566779061,0,0,0.101591866768,0,0,0,202.9, 3.1, -0.7,0,0,364,364,364,1684,0,0,98,4.318,4.322,4.319,4.318,4.321,4.315,0,54.32,1038.1566779061,0,41,Motors_Started,
700,2021-01-16 18:15:26,36.162418931776,-96.8360106534822,0,0,1038.1566779061,1038.1566779061,0,0,0.115786092944,14,5,0,1038.1566779061,0,0,0.115786092944,0,0,0,203, 3.1, -0.7,0,0,364,364,364,1684,0,0,98,4.318,4.322,4.319,4.318,4.321,4.315,0,54.32,1038.1566779061,0,41,Motors_Started,
800,2021-01-16 18:15:26,36.1624189386749,-96.8360106462815,0,0,1038.1566779061,1038.1566779061,0,0,0.115765423652,14,5,0,1038.1566779061,0,0,0.115786092944,0,0,0,203.2, 3.1, -0.7,0,0,364,364,364,1684,0,0,98,4.318,4.322,4.319,4.318,4.321,4.315,0,54.32,1038.1566779061,0,41,Motors_Started,
900,2021-01-16 18:15:26,36.1624189500496,-96.8360106742647,0,0,1038.1566779061,1038.1566779061,0,0,0.124745082732,14,5,0,1038.1566779061,0,0,0.124745082732,0,0,0,203.3, 3.1, -0.7,0,0,364,364,364,1684,0,0,98,4.318,4.322,4.319,4.318,4.321,4.315,0,54.32,1038.1566779061,0,41,Motors_Started,
1000,2021-01-16 18:15:26,36.1624189987791,-96.836010653514,0,0,1038.1566779061,1038.1566779061,0,0,0.132530516052,14,5,0,1038.1566779061,0,0,0.132530516052,0,0,0,203.4, 3.2, -0.7,0,0,364,364,364,1684,0,0,98,4.318,4.322,4.319,4.318,4.321,4.315,0,54.32,1038.1566779061,0,41,Motors_Started,
1100,2021-01-16 18:15:26,36.1624190329072,-96.8360106741812,0,0,1038.1566779061,1038.1566779061,0,0,0.145857288132,14,5,0,1038.1566779061,0,0,0.145857288132,0,0,0,203.4, 3.2, -0.8,0,0,364,364,364,1684,0,0,98,4.318,4.322,4.319,4.318,4.321,4.315,0,54.32,1038.1566779061,0,41,Motors_Started,
1200,2021-01-16 18:15:26,36.1624190480461,-96.8360106908666,0,0,1038.1566779061,1038.1566779061,0,0,0.153250661072,14,5,0,1038.1566779061,0,0,0.153250661072,0,0,0,203.5, 3.2, -0.8,0,0,364,364,364,1684,0,0,98,4.318,4.322,4.319,4.318,4.321,4.315,0,54.32,1038.1566779061,0,41,Motors_Started,
1300,2021-01-16 18:15:27,36.1624190598197,-96.8360107372609,0,0,1038.1566779061,1038.1566779061,0,0,0.165658797952,14,5,0,1038.1566779061,0,0,0.165658797952,0,0,0,203.5, 3.1, -0.8,0,0,364,364,364,1684,0,0,98,4.318,4.322,4.319,4.318,4.321,4.315,0,54.32,1038.1566779061,0,41,Motors_Started,
1400,2021-01-16 18:15:27,36.1624190569301,-96.8360107779081,0,0,1038.1566779061,1038.1566779061,0,0,0.17344324702,14,5,0,1038.1566779061,0,0,0.17344324702,0,0,0,203.5, 3.1, -0.8,0,0,364,364,364,1684,0,0,98,4.318,4.322,4.319,4.318,4.321,4.315,0,54.32,1038.1566779061,0,41,Motors_Started,
1500,2021-01-16 18:15:27,36.1624190618887,-96.8360108345643,0,0,1038.1566779061,1038.1566779061,0,0,0.187141082104,14,5,0,1038.1566779061,0,0,0.187141082104,0,0,0,203.6, 3.2, -0.8,0,0,364,364,364,1684,0,0,98,4.318,4.322,4.319,4.318,4.321,4.315,0,54.32,1038.1566779061,0,41,Motors_Started,
1600,2021-01-16 18:15:27,36.162419057662,-96.8360108967222,0,0,1038.1566779061,1038.1566779061,0,0,0.200596791196,14,5,0,1038.1566779061,0,0,0.200596791196,0,0,0,203.6, 3.2, -0.8,0,0,419,453,364,1584,0,0,98,4.318,4.322,4.319,4.318,4.321,4.315,0,54.32,1038.1566779061,0,41,Motors_Started,
1700,2021-01-16 18:15:27,36.1624190588158,-96.8360109714539,0,0,1038.1566779061,1038.1566779061,0,0,0.218958012256,14,5,0,1038.1566779061,0,0,0.218958012256,0,0,0,203.6, 3.2, -0.8,0,0,612,758,549,1282,0,0,98,4.318,4.322,4.319,4.318,4.321,4.315,0,54.32,1038.1566779061,0,41,Motors_Started,
1800,2021-01-16 18:15:27,36.1624190500035,-96.8360110293051,0,0,1038.1566779061,1038.1566779061,0,0,0.231815296132,14,5,0,1038.1566779061,0,0,0.231815296132,0,0,0,203.6, 3.1, -0.8,0,0,779,1024,657,1024,0,0,98,4.318,4.322,4.319,4.318,4.321,4.315,0,54.32,1038.1566779061,0,41,Motors_Started,
1900,2021-01-16 18:15:27,36.1624190500206,-96.836011093487,0,0,1038.1566779061,1038.1566779061,0,0,0.248370086688,14,5,0,1038.1566779061,0,0,0.248370086688,0,0,0,203.6, 3.1, -0.8,0,0,1024,1024,1002,1024,0,0,98,4.318,4.322,4.319,4.318,4.321,4.315,0,54.32,1038.1566779061,0,41,Motors_Started,
2000,2021-01-16 18:15:27,36.1624190397125,-96.836011090646,0,0,1038.1566779061,1038.1566779061,0,0,0.24589239632,14,5,0,1038.1566779061,0,0,0.248370086688,0,0,0,203.6, 3.1, -0.8,0,0,1024,1024,1024,1024,0,0,98,4.318,4.322,4.319,4.318,4.321,4.315,0,54.32,1038.1566779061,0,10,Assisted_Takeoff,
2100,2021-01-16 18:15:27,36.1624190303514,-96.8360111199424,0,0,1038.1566779061,1038.1566779061,0,0,0.252110244288,14,5,0,1038.1566779061,0,0,0.252110244288,0,0,0,203.7, 3.1, -0.9,0,0,1024,1024,1024,1024,0,0,98,4.318,4.322,4.319,4.318,4.321,4.315,0,54.32,1038.1566779061,0,10,Assisted_Takeoff,
2200,2021-01-16 18:15:27,36.1624190571759,-96.8360111255714,0,0,1038.1566779061,1038.1566779061,0,0,0.257955388832,14,5,0,1038.1566779061,0,0,0.257955388832,0,0,0,203.7, 3, -0.9,0,0,1024,1024,1024,1024,0,0,98,4.318,4.322,4.319,4.318,4.321,4.315,0,54.32,1038.1566779061,0,10,Assisted_Takeoff,
2300,2021-01-16 18:15:27,36.1624190658987,-96.8360111629,0,0,1038.1566779061,1038.1566779061,0,0,0.269192922,14,5,0,1038.1566779061,0,0,0.269192922,0,0,0,203.7, 3, -0.8,0,0,1024,1024,1024,1024,0,0,98,4.318,4.322,4.319,4.318,4.321,4.315,0,54.32,1038.1566779061,0,10,Assisted_Takeoff,
2400,2021-01-16 18:15:27,36.1624190616827,-96.8360111501618,0,0,1038.1566779061,1038.1566779061,0,0,0.26515092712,14,5,0,1038.1566779061,0,0,0.269192922,0,0,0,203.7, 2.8, -0.9,0,0,1024,1024,1024,1024,0,0,98,4.318,4.322,4.319,4.318,4.321,4.315,0,54.32,1038.1566779061,0,10,Assisted_Takeoff,
2500,2021-01-16 18:15:28,36.1624190426201,-96.8360111651124,0.328084,0.328084,1038.1566779061,1038.4847619061,0,0,0.266050205364,14,5,0,1038.4847619061,0.328084,0,0.269192922,0,0,-0.223694,203.8, 2.6, -0.9,0,0,1024,1024,1024,1024,0,0,98,4.318,4.322,4.319,4.318,4.321,4.315,0,54.32,1038.4847619061,0.328084,10,Assisted_Takeoff,
2600,2021-01-16 18:15:28,36.1624190249018,-96.8360111710199,0.328084,0.328084,1038.1566779061,1038.4847619061,0,0,0.26495571714,14,5,25.116,1038.4847619061,0.328084,0,0.269192922,0,0,0,203.9, 2.4, -0.9,0,0,1024,1024,1024,1024,0,0,98,4.318,4.322,4.319,4.318,4.321,4.315,0.603,54.32,1038.4847619061,0.328084,10,Assisted_Takeoff,
2700,2021-01-16 18:15:28,36.1624190054916,-96.8360112003415,0.328084,0.328084,1038.1566779061,1038.4847619061,0,0,0.270190625444,14,5,25.116,1038.4847619061,0.328084,0,0.270190625444,0,0,0,203.9, 2.3, -0.9,0,0,1024,1024,1024,1024,0,0,98,4.318,4.322,4.319,4.318,4.321,4.315,0.603,54.32,1038.4847619061,0.328084,10,Assisted_Takeoff,
2800,2021-01-16 18:15:28,36.1624190109558,-96.8360111677173,0.328084,0.328084,1038.1566779061,1038.4847619061,0,0,0.262049877152,14,5,25.116,1038.4847619061,0.328084,0,0.270190625444,0,0,0,203.9, 2.3, -0.9,0,0,1024,1024,1024,1024,0,0,98,4.318,4.322,4.319,4.318,4.321,4.315,0.603,54.32,1038.4847619061,0.328084,10,Assisted_Takeoff,
2900,2021-01-16 18:15:28,36.1624190186364,-96.8360111530559,0.328084,0.328084,1038.1566779061,1038.4847619061,0,0,0.259191609344,14,5,25.116,1038.4847619061,0.328084,0,0.270190625444,0,0,0,203.9, 2.3, -0.9,0,0,1024,1024,1024,1024,0,0,98,4.318,4.322,4.319,4.318,4.321,4.315,0.603,54.32,1038.4847619061,0.328084,10,Assisted_Takeoff,
3000,2021-01-16 18:15:28,36.1624190644624,-96.8360111370045,0.328084,0.328084,1038.1566779061,1038.4847619061,0,0,0.262169627812,14,5,25.116,1038.4847619061,0.328084,0,0.270190625444,0,0,0,204, 2.5, -0.9,0,0,1024,1024,1024,1024,0,0,98,4.318,4.322,4.319,4.318,4.321,4.315,0.603,54.32,1038.4847619061,0.328084,10,Assisted_Takeoff,
3100,2021-01-16 18:15:28,36.1624191065007,-96.8360111361185,0.328084,0.328084,1038.1566779061,1038.4847619061,0,0,0.269377961376,14,5,25.116,1038.4847619061,0.328084,0,0.270190625444,0,0,0,204, 2.7, -0.9,0,0,1024,1024,1024,1024,0,0,98,4.318,4.322,4.319,4.318,4.321,4.315,0.603,54.32,1038.4847619061,0.328084,10,Assisted_Takeoff,
3200,2021-01-16 18:15:28,36.1624192099403,-96.8360110996492,0.328084,0.328084,1038.1566779061,1038.4847619061,0,0,0.281816938152,14,5,25.116,1038.4847619061,0.328084,0,0.281816938152,0,0,0,203.9, 2.8, -0.9,0,0,1024,1024,1024,1024,0,0,98,4.318,4.322,4.319,4.318,4.321,4.315,0.603,54.32,1038.4847619061,0.328084,10,Assisted_Takeoff,
3300,2021-01-16 18:15:28,36.1624192793356,-96.8360110801984,0.328084,0.328084,1038.1566779061,1038.4847619061,0,0,0.29390748972,14,5,25.116,1038.4847619061,0.328084,0,0.29390748972,0,0,0,203.9, 3, -0.9,0,0,1024,1024,1024,1024,0,0,98,4.318,4.322,4.319,4.318,4.321,4.315,0.603,54.32,1038.4847619061,0.328084,10,Assisted_Takeoff,
3400,2021-01-16 18:15:29,36.1624193337859,-96.8360110987739,0.328084,0.328084,1038.1566779061,1038.4847619061,0,0,0.311604668764,14,5,25.116,1038.4847619061,0.328084,0,0.311604668764,0,0,0,204, 3.1, -0.9,0,0,1024,1024,1024,1024,0,0,98,4.318,4.322,4.319,4.318,4.321,4.315,0.603,54.32,1038.4847619061,0.328084,10,Assisted_Takeoff,
3500,2021-01-16 18:15:29,36.16241937071,-96.8360111107773,0.328084,0.328084,1038.1566779061,1038.4847619061,0,0,0.323680128468,14,5,25.116,1038.4847619061,0.328084,0,0.323680128468,0,0,0,204, 3.2, -0.9,0,0,1024,1024,1024,1024,0,0,98,4.318,4.322,4.319,4.318,4.321,4.315,0.603,54.32,1038.4847619061,0.328084,10,Assisted_Takeoff,
3600,2021-01-16 18:15:29,36.1624194075829,-96.8360111265913,0.328084,0.328084,1038.1566779061,1038.4847619061,0,0,0.33665027324,14,5,25.116,1038.4847619061,0.328084,0,0.33665027324,0,0,0,203.9, 3.1, -0.9,0,0,1024,1024,1024,1024,0,0,98,4.318,4.322,4.319,4.318,4.321,4.315,0.603,54.32,1038.4847619061,0.328084,10,Assisted_Takeoff,
3700,2021-01-16 18:15:29,36.1624194294643,-96.8360111392685,0.328084,0.328084,1038.1566779061,1038.4847619061,0,0,0.3450459428,14,5,25.116,1038.4847619061,0.328084,0,0.3450459428,0,0,0,204, 3, -0.9,0,0,1024,1024,1024,1024,0,0,98,4.318,4.322,4.319,4.318,4.321,4.315,0.603,54.32,1038.4847619061,0.328084,10,Assisted_Takeoff,
3800,2021-01-16 18:15:29,36.1624194108373,-96.8360111940215,0.328084,0.328084,1038.1566779061,1038.4847619061,0,0,0.35132218972,14,5,25.116,1038.4847619061,0.328084,0,0.35132218972,0,0,0,204, 2.9, -0.9,0,0,1024,1024,1024,1024,0,0,98,4.318,4.322,4.319,4.318,4.321,4.315,0.603,54.32,1038.4847619061,0.328084,10,Assisted_Takeoff,
3900,2021-01-16 18:15:29,36.162419399518,-96.8360112342814,0.328084,0.328084,1038.1566779061,1038.4847619061,0,0,0.3570046046,14,5,25.116,1038.4847619061,0.328084,0,0.3570046046,0,0,0,204, 2.8, -0.9,0,0,1024,1024,1024,1024,0,0,98,4.318,4.322,4.319,4.318,4.321,4.315,0.603,54.32,1038.4847619061,0.328084,10,Assisted_Takeoff,
4000,2021-01-16 18:15:29,36.1624193694969,-96.8360113075103,0.328084,0.328084,1038.1566779061,1038.4847619061,0,0,0.36601707208,14,5,25.116,1038.4847619061,0.328084,0,0.36601707208,0,0,0,204, 2.8, -0.9,0,0,1024,1024,1024,1024,0,0,98,4.318,4.322,4.319,4.318,4.321,4.315,0.603,54.32,1038.4847619061,0.328084,10,Assisted_Takeoff,
4100,2021-01-16 18:15:29,36.1624193545249,-96.8360113578199,0.328084,0.328084,1038.1566779061,1038.4847619061,0,0,0.37424213796,14,5,25.116,1038.4847619061,0.328084,0,0.37424213796,0,0,0,204, 2.7, -0.9,0,0,1024,1024,1024,1024,0,0,98,4.318,4.322,4.319,4.318,4.321,4.315,0.603,54.32,1038.4847619061,0.328084,10,Assisted_Takeoff,
4200,2021-01-16 18:15:29,36.1624193876467,-96.8360113881283,0.328084,0.328084,1038.1566779061,1038.4847619061,0,0,0.38869423816,14,5,25.116,1038.4847619061,0.328084,0,0.38869423816,0,0,0,204, 2.7, -0.9,0,0,1024,1024,1024,1024,0,0,98,4.318,4.322,4.319,4.318,4.321,4.315,0.603,54.32,1038.4847619061,0.328084,10,Assisted_Takeoff,
4300,2021-01-16 18:15:29,36.1624194210501,-96.83601140768,0.328084,0.328084,1038.1566779061,1038.4847619061,0,0,0.40077757188,14,5,25.116,1038.4847619061,0.328084,0,0.40077757188,0,0,0,204, 2.7, -0.9,0,0,1024,1024,1024,1024,0,0,98,4.318,4.322,4.319,4.318,4.321,4.315,0.603,54.32,1038.4847619061,0.328084,10,Assisted_Takeoff,
4400,2021-01-16 18:15:30,36.1624194564403,-96.836011448672,0.328084,0.328084,1038.1566779061,1038.4847619061,0,0,0.41828741496,14,5,25.116,1038.4847619061,0.328084,0,0.41828741496,0,0,0,204, 2.8, -0.9,0,0,1024,1024,1024,1024,0,0,98,4.318,4.322,4.319,4.318,4.321,4.315,0.603,54.32,1038.4847619061,0.328084,10,Assisted_Takeoff,
4500,2021-01-16 18:15:30,36.1624194916725,-96.8360114760372,0.328084,0.328084,1038.1566779061,1038.4847619061,0,0,0.43268374088,14,5,25.116,1038.4847619061,0.328084,0,0.43268374088,0,0,0,204, 2.9, -0.9,0,0,1024,1024,1024,1024,0,0,98,4.318,4.322,4.319,4.318,4.321,4.315,0.603,54.32,1038.4847619061,0.328084,10,Assisted_Takeoff,
4600,2021-01-16 18:15:30,36.1624195225177,-96.8360114772627,0.328084,0.328084,1038.1566779061,1038.4847619061,0,0,0.44024607708,14,5,25.116,1038.4847619061,0.328084,0,0.44024607708,0,0,0,204, 2.9, -0.9,0,0,1024,1024,1024,1024,0,0,98,4.318,4.322,4.319,4.318,4.321,4.315,0.603,54.32,1038.4847619061,0.328084,10,Assisted_Takeoff,
4700,2021-01-16 18:15:30,36.1624195536967,-96.8360114761035,0.328084,0.328084,1038.1566779061,1038.4847619061,0,0,0.44752626104,14,5,24.965,1038.4847619061,0.328084,0,0.44752626104,0,0,0,204, 3, -0.9,0,0,1024,1024,1024,1024,0,0,98,4.263,4.24,4.275,4.228,4.245,4.235,3.25,54.32,1038.4847619061,0.328084,10,Assisted_Takeoff,
4800,2021-01-16 18:15:30,36.1624195588751,-96.8360114999711,0.328084,0.328084,1038.1566779061,1038.4847619061,0,0,0.45402232424,14,5,24.965,1038.4847619061,0.328084,0,0.45402232424,0,0,0,204, 2.9, -1,0,0,1024,1024,1024,1024,0,0,98,4.263,4.24,4.275,4.228,4.245,4.235,3.25,54.32,1038.4847619061,0.328084,10,Assisted_Takeoff,
4900,2021-01-16 18:15:30,36.1624195648059,-96.8360115168369,0.328084,0.328084,1038.1566779061,1038.4847619061,0,0,0.45917652388,14,5,24.965,1038.4847619061,0.328084,0,0.45917652388,0,0,0,204, 2.8, -1,0,0,1024,1024,1024,1024,0,0,98,4.263,4.24,4.275,4.228,4.245,4.235,3.25,54.32,1038.4847619061,0.328084,10,Assisted_Takeoff,
5000,2021-01-16 18:15:30,36.1624195455268,-96.8360115712477,0.328084,0.328084,1038.1566779061,1038.4847619061,0,0,0.4668143194,14,5,24.965,1038.4847619061,0.328084,0,0.4668143194,0,0,0,204, 2.7, -0.9,0,0,1024,1024,1024,1024,0,0,98,4.263,4.24,4.275,4.228,4.245,4.235,3.25,54.32,1038.4847619061,0.328084,10,Assisted_Takeoff,
5100,2021-01-16 18:15:30,36.1624195465975,-96.8360115966671,0.328084,0.328084,1038.1566779061,1038.4847619061,0,0,0.47286418836,14,5,24.965,1038.4847619061,0.328084,0,0.47286418836,0,0,0,204, 2.7, -1,0,0,1024,1024,1024,1024,0,0,98,4.263,4.24,4.275,4.228,4.245,4.235,3.25,54.32,1038.4847619061,0.328084,10,Assisted_Takeoff,
5200,2021-01-16 18:15:30,36.1624195332491,-96.8360116102582,0.328084,0.328084,1038.1566779061,1038.4847619061,0,0,0.47295933272,14,5,24.965,1038.4847619061,0.328084,0,0.47295933272,0,0,0,203.9, 2.8, -1,0,0,1024,1024,1024,1024,0,0,98,4.263,4.24,4.275,4.228,4.245,4.235,3.25,54.32,1038.4847619061,0.328084,10,Assisted_Takeoff,
5300,2021-01-16 18:15:30,36.1624195415501,-96.8360116089464,0.328084,0.328084,1038.1566779061,1038.4847619061,0,0,0.47453413592,14,5,24.965,1038.4847619061,0.328084,0,0.47453413592,0,0,0,204, 2.9, -1,0,0,1024,1024,1024,1024,0,0,98,4.263,4.24,4.275,4.228,4.245,4.235,3.25,54.32,1038.4847619061,0.328084,10,Assisted_Takeoff,
5400,2021-01-16 18:15:31,36.1624195454022,-96.8360116334003,0.328084,0.328084,1038.1566779061,1038.4847619061,0,0,0.48105972668,14,5,24.965,1038.4847619061,0.328084,0,0.48105972668,0,0,0,204, 3.1, -1,0,0,1024,1024,1024,1024,0,0,98,4.263,4.24,4.275,4.228,4.245,4.235,3.25,54.32,1038.4847619061,0.328084,10,Assisted_Takeoff,
5500,2021-01-16 18:15:31,36.1624195667063,-96.8360116345038,0.328084,0.328084,1038.1566779061,1038.4847619061,0,0,0.48614502868,14,5,24.965,1038.4847619061,0.328084,0,0.48614502868,0,0,0,204, 3.2, -0.9,0,0,1024,1024,1024,1024,0,0,98,4.263,4.24,4.275,4.228,4.245,4.235,3.25,54.32,1038.4847619061,0.328084,10,Assisted_Takeoff,
5600,2021-01-16 18:15:31,36.1624196141429,-96.8360116722397,0.328084,0.328084,1038.1566779061,1038.4847619061,0,0,0.5056922734,14,5,24.965,1038.4847619061,0.328084,0,0.5056922734,0,0,0,203.9, 3.2, -1,0,0,1024,1024,1026,1024,0,0,98,4.263,4.24,4.275,4.228,4.245,4.235,3.25,54.32,1038.4847619061,0.328084,10,Assisted_Takeoff,
5700,2021-01-16 18:15:31,36.1624196487538,-96.8360116804524,0.328084,0.328084,1038.1566779061,1038.4847619061,0,0,0.51565946532,14,5,24.965,1038.4847619061,0.328084,0,0.51565946532,0,0,0,204, 3.1, -1,0,0,1024,1024,1024,1024,0,0,98,4.263,4.24,4.275,4.228,4.245,4.235,3.25,54.32,1038.4847619061,0.328084,10,Assisted_Takeoff,
5800,2021-01-16 18:15:31,36.1624196459464,-96.8360117460111,0.328084,0.328084,1038.1566779061,1038.4847619061,0,0,0.52986222168,14,5,24.965,1038.4847619061,0.328084,0,0.52986222168,0,0,0,204, 2.9, -1,0,0,1024,1024,1024,1024,0,0,98,4.263,4.24,4.275,4.228,4.245,4.235,3.25,54.32,1038.4847619061,0.328084,10,Assisted_Takeoff,
5900,2021-01-16 18:15:31,36.1624196477987,-96.8360117697925,0.328084,0.328084,1038.1566779061,1038.4847619061,0,0,0.53574804864,14,5,24.965,1038.4847619061,0.328084,0,0.53574804864,0,0,0,204, 2.8, -1,0,0,1024,1024,1024,1024,0,0,98,4.263,4.24,4.275,4.228,4.245,4.235,3.25,54.32,1038.4847619061,0.328084,10,Assisted_Takeoff,
6100,2021-01-16 18:15:31,36.162419621663,-96.8360117960939,0.328084,0.328084,1038.1566779061,1038.4847619061,0,0,0.53600067332,14,5,24.965,1038.4847619061,0.328084,0,0.53600067332,0,0,0,204, 2.6, -1,0,0,1024,1024,1024,1024,0,0,98,4.263,4.24,4.275,4.228,4.245,4.235,3.25,54.32,1038.4847619061,0.328084,10,Assisted_Takeoff,
6200,2021-01-16 18:15:31,36.1624195678006,-96.8360118383593,0.328084,0.328084,1038.1566779061,1038.4847619061,0,0,0.5345144528,14,5,24.965,1038.4847619061,0.328084,0,0.53600067332,0,0,0,204, 2.7, -0.9,0,0,1024,1024,1024,1024,0,0,98,4.263,4.24,4.275,4.228,4.245,4.235,3.25,54.32,1038.4847619061,0.328084,10,Assisted_Takeoff,
6300,2021-01-16 18:15:31,36.1624195495889,-96.8360118438928,0.328084,0.328084,1038.1566779061,1038.4847619061,0,0,0.5321030354,14,5,24.965,1038.4847619061,0.328084,0,0.53600067332,0,0,0,204, 2.8, -0.9,0,0,1024,1024,1024,1024,0,0,98,4.263,4.24,4.275,4.228,4.245,4.235,3.25,54.32,1038.4847619061,0.328084,10,Assisted_Takeoff,
6400,2021-01-16 18:15:32,36.1624195305956,-96.8360118531069,0.328084,0.328084,1038.1566779061,1038.4847619061,0,0,0.53051510884,14,5,24.965,1038.4847619061,0.328084,0,0.53600067332,0,0,0,204, 2.9, -1,0,0,1024,1024,1024,1024,0,0,98,4.263,4.24,4.275,4.228,4.245,4.235,3.25,54.32,1038.4847619061,0.328084,10,Assisted_Takeoff,
6500,2021-01-16 18:15:32,36.1624195312184,-96.8360118398859,0.328084,0.328084,1038.1566779061,1038.4847619061,0,0,0.52739174916,14,5,24.965,1038.4847619061,0.328084,0,0.53600067332,0,0,0,204, 3, -0.9,0,0,1024,1024,1024,1024,0,0,98,4.263,4.24,4.275,4.228,4.245,4.235,3.25,54.32,1038.4847619061,0.328084,10,Assisted_Takeoff,
6600,2021-01-16 18:15:32,36.1624195685188,-96.8360118915378,0.328084,0.328084,1038.1566779061,1038.4847619061,0,0,0.54760172356,14,5,24.965,1038.4847619061,0.328084,0,0.54760172356,0,0,0,204, 3.1, -1,0,0,1024,1024,1024,1024,0,0,98,4.263,4.24,4.275,4.228,4.245,4.235,3.25,54.32,1038.4847619061,0.328084,10,Assisted_Takeoff,
6700,2021-01-16 18:15:32,36.1624195953124,-96.8360119078214,0.328084,0.328084,1038.1566779061,1038.4847619061,0,0,0.55705710444,14,5,24.516,1038.4847619061,0.328084,0,0.55705710444,0,0,0,204, 3.1, -1,0,0,1024,1024,1024,1024,0,0,98,4.217,4.227,4.219,4.217,4.218,4.211,4.887,54.32,1038.4847619061,0.328084,10,Assisted_Takeoff,
6800,2021-01-16 18:15:32,36.1624195956837,-96.8360119486251,0.328084,0.328084,1038.1566779061,1038.4847619061,0,0,0.56708663232,14,5,24.516,1038.4847619061,0.328084,0,0.56708663232,0,0,0,204, 3, -1,0,0,1024,1024,1024,1024,0,0,98,4.217,4.227,4.219,4.217,4.218,4.211,4.887,54.32,1038.4847619061,0.328084,10,Assisted_Takeoff,
6900,2021-01-16 18:15:32,36.1624195865171,-96.836011956932,0.328084,0.328084,1038.1566779061,1038.4847619061,0,0,0.56728020188,14,5,24.516,1038.4847619061,0.328084,0,0.56728020188,0,0,0,203.9, 2.8, -1,0,0,1024,1024,1024,1024,0,0,98,4.217,4.227,4.219,4.217,4.218,4.211,4.887,54.32,1038.4847619061,0.328084,10,Assisted_Takeoff,
7000,2021-01-16 18:15:32,36.1624195491639,-96.8360120263317,0.328084,0.328084,1038.1566779061,1038.4847619061,0,0,0.57731629144,14,5,24.516,1038.4847619061,0.328084,0,0.57731629144,0,0,0,204, 2.7, -0.9,0,0,1024,1024,1024,1024,0,0,98,4.217,4.227,4.219,4.217,4.218,4.211,4.887,54.32,1038.4847619061,0.328084,10,Assisted_Takeoff,
7100,2021-01-16 18:15:32,36.162419520588,-96.836012054689,0.328084,0.328084,1038.1566779061,1038.4847619061,0,0,0.57923886368,14,5,24.516,1038.4847619061,0.328084,0,0.57923886368,0,0,0,204, 2.6, -1,0,0,1024,1024,1024,1024,0,0,98,4.217,4.227,4.219,4.217,4.218,4.211,4.887,54.32,1038.4847619061,0.328084,10,Assisted_Takeoff,
7200,2021-01-16 18:15:32,36.1624194850423,-96.8360120986282,0.328084,0.328084,1038.1566779061,1038.4847619061,0,0,0.5843011998,14,5,24.516,1038.4847619061,0.328084,0,0.5843011998,0,0,0,203.9, 2.5, -1,0,0,1024,1024,1024,1024,0,0,98,4.217,4.227,4.219,4.217,4.218,4.211,4.887,54.32,1038.4847619061,0.328084,10,Assisted_Takeoff,
7300,2021-01-16 18:15:32,36.16241946135,-96.8360121123533,0.328084,0.328084,1038.1566779061,1038.4847619061,0,0,0.58388453312,14,5,24.516,1038.4847619061,0.328084,0,0.5843011998,0,0,0,203.9, 2.5, -1,0,0,1024,1024,1024,1024,0,0,98,4.217,4.227,4.219,4.217,4.218,4.211,4.887,54.32,1038.4847619061,0.328084,10,Assisted_Takeoff,
7400,2021-01-16 18:15:33,36.1624194545383,-96.8360121729129,0.328084,0.328084,1038.1566779061,1038.4847619061,0,0,0.5987204916,14,5,24.516,1038.4847619061,0.328084,0,0.5987204916,0,0,0,204, 2.6, -1,0,0,1024,1024,1024,1024,0,0,98,4.217,4.227,4.219,4.217,4.218,4.211,4.887,54.32,1038.4847619061,0.328084,10,Assisted_Takeoff,
7500,2021-01-16 18:15:33,36.1624194463138,-96.8360121962115,0.328084,0.328084,1038.1566779061,1038.4847619061,0,0,0.60358925816,14,5,24.516,1038.4847619061,0.328084,0,0.60358925816,0,0,0,203.9, 2.7, -0.9,0,0,1024,1024,1024,1024,0,0,98,4.217,4.227,4.219,4.217,4.218,4.211,4.887,54.32,1038.4847619061,0.328084,10,Assisted_Takeoff,
7600,2021-01-16 18:15:33,36.1624194561447,-96.836012266362,0.328084,0.328084,1038.1566779061,1038.4847619061,0,0,0.6238025134,14,5,24.516,1038.4847619061,0.328084,0,0.6238025134,0,0,0,203.9, 2.9, -1,0,0,1024,1024,1024,1024,0,0,98,4.217,4.227,4.219,4.217,4.218,4.211,4.887,54.32,1038.4847619061,0.328084,10,Assisted_Takeoff,
7700,2021-01-16 18:15:33,36.1624194572985,-96.8360122903039,0.328084,0.328084,1038.1566779061,1038.4847619061,0,0,0.63037731676,14,5,24.516,1038.4847619061,0.328084,0,0.63037731676,0,0,0,203.9, 3, -0.9,0,0,1024,1024,1024,1024,0,0,98,4.217,4.227,4.219,4.217,4.218,4.211,4.887,54.32,1038.4847619061,0.328084,10,Assisted_Takeoff,
7800,2021-01-16 18:15:33,36.1624194675666,-96.836012315336,0.328084,0.328084,1038.1566779061,1038.4847619061,0,0,0.63864175272,14,5,24.516,1038.4847619061,0.328084,0,0.63864175272,0,0,0,203.9, 3.1, -0.9,0,0,1024,1024,1024,1024,0,0,98,4.217,4.227,4.219,4.217,4.218,4.211,4.887,54.32,1038.4847619061,0.328084,10,Assisted_Takeoff,
7900,2021-01-16 18:15:33,36.1624194665725,-96.8360123190299,0.328084,0.328084,1038.1566779061,1038.4847619061,0,0,0.63947508608,14,5,24.516,1038.4847619061,0.328084,0,0.63947508608,0,0,0,204, 3.1, -0.9,0,0,1024,1024,1018,1024,0,0,98,4.217,4.227,4.219,4.217,4.218,4.211,4.887,54.32,1038.4847619061,0.328084,10,Assisted_Takeoff,
8000,2021-01-16 18:15:33,36.1624194683263,-96.8360123747444,0.328084,0.328084,1038.1566779061,1038.4847619061,0,0,0.6546752178,14,5,24.516,1038.4847619061,0.328084,0,0.6546752178,0,0,0,203.9, 3.1, -0.9,0,0,1024,1024,1024,1024,0,0,98,4.217,4.227,4.219,4.217,4.218,4.211,4.887,54.32,1038.4847619061,0.328084,10,Assisted_Takeoff,
8100,2021-01-16 18:15:33,36.1624194663714,-96.8360124009623,0,0,1038.1566779061,1038.1566779061,0,0,0.66143702904,14,5,24.516,1038.4847619061,0.328084,0,0.66143702904,0,0,0,203.9, 3, -1,0,0,1024,1024,1024,1024,0,0,98,4.217,4.227,4.219,4.217,4.218,4.211,4.887,54.32,1038.1566779061,0,10,Assisted_Takeoff,
8200,2021-01-16 18:15:33,36.1624194670854,-96.8360124848378,0,0,1038.1566779061,1038.1566779061,0,0,0.6842027778,14,5,24.516,1038.4847619061,0.328084,0,0.6842027778,0,0,0,204, 3, -0.9,0,0,1024,1024,1024,1024,0,0,98,4.217,4.227,4.219,4.217,4.218,4.211,4.887,54.32,1038.1566779061,0,10,Assisted_Takeoff,
8300,2021-01-16 18:15:34,36.1624194633335,-96.8360125299946,0,0,1038.1566779061,1038.1566779061,0,0,0.69593506164,14,5,24.516,1038.4847619061,0.328084,0,0.69593506164,0,0,0,203.9, 2.9, -0.9,0,0,1024,1024,1024,1024,0,0,98,4.217,4.227,4.219,4.217,4.218,4.211,4.887,54.32,1038.1566779061,0,10,Assisted_Takeoff,
8400,2021-01-16 18:15:34,36.1624194656996,-96.8360125748437,0,0,1038.1566779061,1038.1566779061,0,0,0.7084809938,14,5,24.516,1038.4847619061,0.328084,0,0.7084809938,0,0,0,203.9, 2.9, -0.9,0,0,1024,1024,1024,1024,0,0,98,4.217,4.227,4.219,4.217,4.218,4.211,4.887,54.32,1038.1566779061,0,10,Assisted_Takeoff,
8500,2021-01-16 18:15:34,36.1624194678019,-96.8360125957509,0,0,1038.1566779061,1038.1566779061,0,0,0.71447508848,14,5,24.516,1038.4847619061,0.328084,0,0.71447508848,0,0,0,203.9, 2.9, -0.9,0,0,1024,1024,1024,1024,0,0,98,4.217,4.227,4.219,4.217,4.218,4.211,4.887,54.32,1038.1566779061,0,10,Assisted_Takeoff,
8600,2021-01-16 18:15:34,36.1624194807595,-96.8360125986887,0,0,1038.1566779061,1038.1566779061,0,0,0.71706367124,14,5,24.516,1038.4847619061,0.328084,0,0.71706367124,0,0,0,204, 3, -0.9,0,0,1024,1024,1024,1024,0,0,98,4.217,4.227,4.219,4.217,4.218,4.211,4.887,54.32,1038.1566779061,0,10,Assisted_Takeoff,
8700,2021-01-16 18:15:34,36.1624194855015,-96.8360125886735,0,0,1038.1566779061,1038.1566779061,0,0,0.71500002288,14,5,24.494,1038.4847619061,0.328084,0,0.71706367124,0,0,0,204, 3.1, -0.9,0,0,1024,1024,1024,1024,0,0,98,4.214,4.224,4.216,4.215,4.215,4.208,4.878,54.32,1038.1566779061,0,10,Assisted_Takeoff,
8800,2021-01-16 18:15:34,36.162419495689,-96.8360126178651,0,0,1038.1566779061,1038.1566779061,0,0,0.72436682108,14,5,24.494,1038.4847619061,0.328084,0,0.72436682108,0,0,0,203.9, 3.1, -0.9,0,0,1024,1024,1024,1024,0,0,98,4.214,4.224,4.216,4.215,4.215,4.208,4.878,54.32,1038.1566779061,0,10,Assisted_Takeoff,
8900,2021-01-16 18:15:34,36.1624194996804,-96.8360126298685,0,0,1038.1566779061,1038.1566779061,0,0,0.72818899968,14,5,24.494,1038.4847619061,0.328084,0,0.72818899968,0,0,0,204, 3.2, -1,0,0,1024,1024,1024,1024,0,0,98,4.214,4.224,4.216,4.215,4.215,4.208,4.878,54.32,1038.1566779061,0,10,Assisted_Takeoff,
9000,2021-01-16 18:15:34,36.162419490544,-96.8360126529443,0,0,1038.1566779061,1038.1566779061,0,0,0.73320540404,14,5,24.494,1038.4847619061,0.328084,0,0.73320540404,0,0,0,204, 3.2, -0.9,0,0,1024,1024,1024,1024,0,0,98,4.214,4.224,4.216,4.215,4.215,4.208,4.878,54.32,1038.1566779061,0,10,Assisted_Takeoff,
9100,2021-01-16 18:15:34,36.1624194774627,-96.8360126639436,0,0,1038.1566779061,1038.1566779061,0,0,0.73442587652,14,5,24.494,1038.4847619061,0.328084,0,0.73442587652,0,0,0,203.9, 3.1, -1,0,0,1024,1024,1024,1024,0,0,98,4.214,4.224,4.216,4.215,4.215,4.208,4.878,54.32,1038.1566779061,0,10,Assisted_Takeoff,
9200,2021-01-16 18:15:34,36.1624194582707,-96.8360127382628,0,0,1038.1566779061,1038.1566779061,0,0,0.7523130162,14,5,24.494,1038.4847619061,0.328084,0,0.7523130162,0,0,0,204, 3.2, -0.9,0,0,1024,1024,1024,1024,0,0,98,4.214,4.224,4.216,4.215,4.215,4.208,4.878,54.32,1038.1566779061,0,10,Assisted_Takeoff,
9300,2021-01-16 18:15:34,36.162419441422,-96.8360127817325,0,0,1038.1566779061,1038.1566779061,0,0,0.76220146796,14,5,24.494,1038.4847619061,0.328084,0,0.76220146796,0,0,0,204, 3.2, -1,0,0,1024,1024,1024,1024,0,0,98,4.214,4.224,4.216,4.215,4.215,4.208,4.878,54.32,1038.1566779061,0,10,Assisted_Takeoff,
9400,2021-01-16 18:15:35,36.1624194361035,-96.8360128193623,0,0,1038.1566779061,1038.1566779061,0,0,0.77199149452,14,5,24.494,1038.4847619061,0.328084,0,0.77199149452,0,0,0,203.9, 3.3, -0.9,0,0,1024,1024,1024,1024,0,0,98,4.214,4.224,4.216,4.215,4.215,4.208,4.878,54.32,1038.1566779061,0,10,Assisted_Takeoff,
9500,2021-01-16 18:15:35,36.1624194287193,-96.8360128399896,0,0,1038.1566779061,1038.1566779061,0,0,0.7768372952,14,5,24.494,1038.4847619061,0.328084,0,0.7768372952,0,0,0,204, 3.3, -1,0,0,1024,1024,1024,1024,0,0,98,4.214,4.224,4.216,4.215,4.215,4.208,4.878,54.32,1038.1566779061,0,10,Assisted_Takeoff,
9600,2021-01-16 18:15:35,36.1624194342625,-96.8360128453786,0,0,1038.1566779061,1038.1566779061,0,0,0.77899936876,14,5,24.494,1038.4847619061,0.328084,0,0.77899936876,0,0,0,204, 3.2, -1,0,0,1024,1024,1024,1024,0,0,98,4.214,4.224,4.216,4.215,4.215,4.208,4.878,54.32,1038.1566779061,0,10,Assisted_Takeoff,
9700,2021-01-16 18:15:35,36.1624194173918,-96.8360128501309,0,0,1038.1566779061,1038.1566779061,0,0,0.77832351572,14,5,24.494,1038.4847619061,0.328084,0,0.77899936876,0,0,0,203.9, 3, -1,0,0,1024,1024,1024,1024,0,0,98,4.214,4.224,4.216,4.215,4.215,4.208,4.878,54.32,1038.1566779061,0,10,Assisted_Takeoff,
9800,2021-01-16 18:15:35,36.162419405312,-96.8360128493669,0,0,1038.1566779061,1038.1566779061,0,0,0.7767060616,14,5,24.494,1038.4847619061,0.328084,0,0.77899936876,0,0,0,203.9, 2.8, -1,0,0,1024,1024,1024,1024,0,0,98,4.214,4.224,4.216,4.215,4.215,4.208,4.878,54.32,1038.1566779061,0,10,Assisted_Takeoff,
9900,2021-01-16 18:15:35,36.1624193864514,-96.8360128564072,0,0,1038.1566779061,1038.1566779061,0,0,0.77653217708,14,5,24.494,1038.4847619061,0.328084,0,0.77899936876,0,0,0,204, 2.7, -0.9,0,0,1024,1024,1024,1024,0,0,98,4.214,4.224,4.216,4.215,4.215,4.208,4.878,54.32,1038.1566779061,0,10,Assisted_Takeoff,
10100,2021-01-16 18:15:35,36.1624192995674,-96.8360128357029,0,0,1038.1566779061,1038.1566779061,0,0,0.76150921072,14,5,24.494,1038.4847619061,0.328084,0,0.77899936876,0,0,0,203.9, 2.8, -1,0,0,1024,1024,1024,1024,0,0,98,4.214,4.224,4.216,4.215,4.215,4.208,4.878,54.32,1038.1566779061,0,10,Assisted_Takeoff,
10200,2021-01-16 18:15:35,36.1624193050756,-96.8360128597482,0,0,1038.1566779061,1038.1566779061,0,0,0.76887141568,14,5,24.494,1038.4847619061,0.328084,0,0.77899936876,0,0,0,203.9, 3, -1,0,0,1024,1024,1024,1024,0,0,98,4.214,4.224,4.216,4.215,4.215,4.208,4.878,54.32,1038.1566779061,0,10,Assisted_Takeoff,
10300,2021-01-16 18:15:36,36.162419304649,-96.8360128702423,0,0,1038.1566779061,1038.1566779061,0,0,0.77180448664,14,5,24.494,1038.4847619061,0.328084,0,0.77899936876,0,0,0,204, 3.2, -1,0,0,1024,1024,1024,1024,0,0,98,4.214,4.224,4.216,4.215,4.215,4.208,4.878,54.32,1038.1566779061,0,10,Assisted_Takeoff,
10400,2021-01-16 18:15:36,36.1624193792895,-96.8360128683284,0,0,1038.1566779061,1038.1566779061,0,0,0.77907810892,14,5,24.494,1038.4847619061,0.328084,0,0.77907810892,0,0,0,204, 3.3, -0.9,0,0,1024,1024,1024,1024,0,0,98,4.214,4.224,4.216,4.215,4.215,4.208,4.878,54.32,1038.1566779061,0,10,Assisted_Takeoff,
10500,2021-01-16 18:15:36,36.1624194173308,-96.836012857122,0,0,1038.1566779061,1038.1566779061,0,0,0.780265773,14,5,24.494,1038.4847619061,0.328084,0,0.780265773,0,0,0,203.9, 3.2, -1,0,0,1024,1024,1024,1024,0,0,98,4.214,4.224,4.216,4.215,4.215,4.208,4.878,54.32,1038.1566779061,0,10,Assisted_Takeoff,
10600,2021-01-16 18:15:36,36.1624194509842,-96.8360128509731,0,0,1038.1566779061,1038.1566779061,0,0,0.7825787652,14,5,24.494,1038.4847619061,0.328084,0,0.7825787652,0,0,0,203.9, 3.1, -1,0,0,1024,1024,1024,1024,0,0,98,4.214,4.224,4.216,4.215,4.215,4.208,4.878,54.32,1038.1566779061,0,10,Assisted_Takeoff,
10700,2021-01-16 18:15:36,36.1624194626194,-96.836012835293,0,0,1038.1566779061,1038.1566779061,0,0,0.77966866012,14,5,24.4755,1038.4847619061,0.328084,0,0.7825787652,0,0,0,204, 3, -1,0,0,1024,1024,1024,1024,0,0,98,4.21,4.221,4.213,4.212,4.212,4.206,4.883,54.32,1038.1566779061,0,10,Assisted_Takeoff,
10800,2021-01-16 18:15:36,36.1624194719569,-96.8360128216502,0,0,1038.1566779061,1038.1566779061,0,0,0.77707023484,14,5,24.4755,1038.4847619061,0.328084,0,0.7825787652,0,0,0,204, 3, -1,0,0,1024,1024,1024,1024,0,0,98,4.21,4.221,4.213,4.212,4.212,4.206,4.883,54.32,1038.1566779061,0,10,Assisted_Takeoff,
10900,2021-01-16 18:15:36,36.16241948205,-96.8360127833944,0,0,1038.1566779061,1038.1566779061,0,0,0.76781826604,14,5,24.4755,1038.4847619061,0.328084,0,0.7825787652,0,0,0,203.9, 2.9, -1,0,0,1024,1024,1024,1024,0,0,98,4.21,4.221,4.213,4.212,4.212,4.206,4.883,54.32,1038.1566779061,0,10,Assisted_Takeoff,
11000,2021-01-16 18:15:36,36.1624195029592,-96.8360127413678,0,0,1038.1566779061,1038.1566779061,0,0,0.7590551424,14,5,24.4755,1038.4847619061,0.328084,0,0.7825787652,0,0,0,204, 3, -1,0,0,1024,1024,1024,1024,0,0,98,4.21,4.221,4.213,4.212,4.212,4.206,4.883,54.32,1038.1566779061,0,10,Assisted_Takeoff,
11100,2021-01-16 18:15:36,36.1624195266962,-96.836012679312,0,0,1038.1566779061,1038.1566779061,0,0,0.74543309472,14,5,24.4755,1038.4847619061,0.328084,0,0.7825787652,0,0,0,204, 3.2, -1,0,0,1024,1024,1024,1024,0,0,98,4.21,4.221,4.213,4.212,4.212,4.206,4.883,54.32,1038.1566779061,0,10,Assisted_Takeoff,
11200,2021-01-16 18:15:36,36.1624195594052,-96.8360126772907,0,0,1038.1566779061,1038.1566779061,0,0,0.74960960404,14,5,24.4755,1038.4847619061,0.328084,0,0.7825787652,0,0,0,204, 3.3, -1,0,0,1024,1024,1024,1024,0,0,98,4.21,4.221,4.213,4.212,4.212,4.206,4.883,54.32,1038.1566779061,0,10,Assisted_Takeoff,
11300,2021-01-16 18:15:36,36.1624195888906,-96.8360126368265,0,0,1038.1566779061,1038.1566779061,0,0,0.74317259596,14,5,24.4755,1038.4847619061,0.328084,0,0.7825787652,0,0,0,204, 3.4, -1,0,0,1024,1024,1024,1024,0,0,98,4.21,4.221,4.213,4.212,4.212,4.206,4.883,54.32,1038.1566779061,0,10,Assisted_Takeoff,
11400,2021-01-16 18:15:36,36.162419601266,-96.8360126421703,0,0,1038.1566779061,1038.1566779061,0,0,0.74650921024,14,5,24.4755,1038.4847619061,0.328084,0,0.7825787652,0,0,0,204, 3.5, -0.9,0,0,1024,1024,1024,1024,0,0,98,4.21,4.221,4.213,4.212,4.212,4.206,4.883,54.32,1038.1566779061,0,10,Assisted_Takeoff,
11500,2021-01-16 18:15:37,36.1624196067221,-96.8360126088087,0,0,1038.1566779061,1038.1566779061,0,0,0.73848099476,14,5,24.4755,1038.4847619061,0.328084,0,0.7825787652,0,0,0,203.9, 3.4, -0.9,0,0,1024,1024,1024,1024,0,0,98,4.21,4.221,4.213,4.212,4.212,4.206,4.883,54.32,1038.1566779061,0,10,Assisted_Takeoff,
11600,2021-01-16 18:15:37,36.1624195836779,-96.8360126372098,0,0,1038.1566779061,1038.1566779061,0,0,0.74247705788,14,5,24.4755,1038.4847619061,0.328084,0,0.7825787652,0,0,0,204, 3.3, -1,0,0,1024,1024,1024,1024,0,0,98,4.21,4.221,4.213,4.212,4.212,4.206,4.883,54.32,1038.1566779061,0,10,Assisted_Takeoff,
11700,2021-01-16 18:15:37,36.1624195736899,-96.8360126169936,0,0,1038.1566779061,1038.1566779061,0,0,0.73554464296,14,5,24.4755,1038.4847619061,0.328084,0,0.7825787652,0,0,0,204, 3.3, -0.9,0,0,1024,1024,1024,1024,0,0,98,4.21,4.221,4.213,4.212,4.212,4.206,4.883,54.32,1038.1566779061,0,10,Assisted_Takeoff,
11800,2021-01-16 18:15:37,36.1624195479173,-96.8360126580825,0,0,1038.1566779061,1038.1566779061,0,0,0.74274280592,14,5,24.4755,1038.4847619061,0.328084,0,0.7825787652,0,0,0,204, 3.4, -0.9,0,0,1024,1024,1024,1024,0,0,98,4.21,4.221,4.213,4.212,4.212,4.206,4.883,54.32,1038.1566779061,0,10,Assisted_Takeoff,
11900,2021-01-16 18:15:37,36.1624195329145,-96.8360126552335,0,0,1038.1566779061,1038.1566779061,0,0,0.7397966116,14,5,24.4755,1038.4847619061,0.328084,0,0.7825787652,0,0,0,204, 3.4, -0.9,0,0,1024,1024,1024,1024,0,0,98,4.21,4.221,4.213,4.212,4.212,4.206,4.883,54.32,1038.1566779061,0,10,Assisted_Takeoff,
12000,2021-01-16 18:15:37,36.1624195145334,-96.8360127083166,0,0,1038.1566779061,1038.1566779061,0,0,0.75161419728,14,5,24.4755,1038.4847619061,0.328084,0,0.7825787652,0,0,0,204, 3.4, -0.9,0,0,1024,1024,1024,1024,0,0,98,4.21,4.221,4.213,4.212,4.212,4.206,4.883,54.32,1038.1566779061,0,10,Assisted_Takeoff,
12100,2021-01-16 18:15:37,36.1624195014024,-96.8360127180732,0,0,1038.1566779061,1038.1566779061,0,0,0.75247377736,14,5,24.4755,1038.4847619061,0.328084,0,0.7825787652,0,0,0,204, 3.5, -0.9,0,0,1024,1024,1024,1024,0,0,98,4.21,4.221,4.213,4.212,4.212,4.206,4.883,54.32,1038.1566779061,0,10,Assisted_Takeoff,
12200,2021-01-16 18:15:37,36.1624194848526,-96.8360127737718,0,0,1038.1566779061,1038.1566779061,0,0,0.7655348014,14,5,24.4755,1038.4847619061,0.328084,0,0.7825787652,0,0,0,204, 3.4, -0.9,0,0,1024,1024,1024,1024,0,0,98,4.21,4.221,4.213,4.212,4.212,4.206,4.883,54.32,1038.1566779061,0,10,Assisted_Takeoff,
12300,2021-01-16 18:15:37,36.1624194667834,-96.8360127843109,0,0,1038.1566779061,1038.1566779061,0,0,0.76610566756,14,5,24.4755,1038.4847619061,0.328084,0,0.7825787652,0,0,0,204, 3.4, -1,0,0,1024,1024,1024,1024,0,0,98,4.21,4.221,4.213,4.212,4.212,4.206,4.883,54.32,1038.1566779061,0,10,Assisted_Takeoff,
12400,2021-01-16 18:15:38,36.1624194519914,-96.8360128707808,0,0,1038.1566779061,1038.1566779061,0,0,0.78820212496,14,5,24.4755,1038.4847619061,0.328084,0,0.78820212496,0,0,0,204, 3.4, -0.9,0,0,1024,1024,1024,1024,0,0,98,4.21,4.221,4.213,4.212,4.212,4.206,4.883,54.32,1038.1566779061,0,10,Assisted_Takeoff,
12500,2021-01-16 18:15:38,36.1624194392407,-96.8360129027457,0,0,1038.1566779061,1038.1566779061,0,0,0.79556432992,14,5,24.4755,1038.4847619061,0.328084,0,0.79556432992,0,0,0,204, 3.4, -0.9,0,0,1024,1024,1024,1024,0,0,98,4.21,4.221,4.213,4.212,4.212,4.206,4.883,54.32,1038.1566779061,0,10,Assisted_Takeoff,
12600,2021-01-16 18:15:38,36.1624194386992,-96.8360129016899,0,0,1038.1566779061,1038.1566779061,0,0,0.79520671836,14,5,24.4755,1038.4847619061,0.328084,0,0.79556432992,0,0,0,204, 3.4, -0.9,0,0,1024,1024,1024,1024,0,0,98,4.21,4.221,4.213,4.212,4.212,4.206,4.883,54.32,1038.1566779061,0,10,Assisted_Takeoff,
12700,2021-01-16 18:15:38,36.1624194313753,-96.8360128770226,0,0,1038.1566779061,1038.1566779061,0,0,0.7874672168,14,5,24.466,1038.4847619061,0.328084,0,0.79556432992,0,0,0,204, 3.3, -0.9,0,0,1024,1024,1024,1024,0,0,98,4.209,4.22,4.211,4.21,4.21,4.204,4.893,54.32,1038.1566779061,0,10,Assisted_Takeoff,
12800,2021-01-16 18:15:38,36.1624194365391,-96.836012911241,0,0,1038.1566779061,1038.1566779061,0,0,0.79761485492,14,5,24.466,1038.4847619061,0.328084,0,0.79761485492,0,0,0,204, 3.4, -0.9,0,0,1024,1024,1024,1024,0,0,98,4.209,4.22,4.211,4.21,4.21,4.204,4.893,54.32,1038.1566779061,0,10,Assisted_Takeoff,
12900,2021-01-16 18:15:38,36.1624194352876,-96.8360129152585,0,0,1038.1566779061,1038.1566779061,0,0,0.7985892644,14,5,24.466,1038.4847619061,0.328084,0,0.7985892644,0,0,0,204, 3.3, -0.9,0,0,1024,1024,1024,1024,0,0,98,4.209,4.22,4.211,4.21,4.21,4.204,4.893,54.32,1038.1566779061,0,10,Assisted_Takeoff,
13000,2021-01-16 18:15:38,36.162419443144,-96.8360129405439,0,0,1038.1566779061,1038.1566779061,0,0,0.8065617056,14,5,24.466,1038.4847619061,0.328084,0,0.8065617056,0,0,0,204, 3.3, -1,0,0,1024,1024,1024,1024,0,0,98,4.209,4.22,4.211,4.21,4.21,4.204,4.893,54.32,1038.1566779061,0,10,Assisted_Takeoff,
13100,2021-01-16 18:15:38,36.1624194430944,-96.8360129359999,0,0,1038.1566779061,1038.1566779061,0,0,0.80528873968,14,5,24.466,1038.4847619061,0.328084,0,0.8065617056,0,0,0,204, 3.3, -0.9,0,0,1024,1024,1024,1024,0,0,98,4.209,4.22,4.211,4.21,4.21,4.204,4.893,54.32,1038.1566779061,0,10,Assisted_Takeoff,
13200,2021-01-16 18:15:38,36.1624194497124,-96.8360129039673,0,0,1038.1566779061,1038.1566779061,0,0,0.79715225648,14,5,24.466,1038.4847619061,0.328084,0,0.8065617056,0,0,0,204, 3.2, -0.9,0,0,1024,1024,1024,1024,0,0,98,4.209,4.22,4.211,4.21,4.21,4.204,4.893,54.32,1038.1566779061,0,10,Assisted_Takeoff,
13300,2021-01-16 18:15:38,36.1624194536296,-96.8360128669768,0,0,1038.1566779061,1038.1566779061,0,0,0.78734582572,14,5,24.466,1038.4847619061,0.328084,0,0.8065617056,0,0,0,204, 3.2, -0.9,0,0,1024,1024,1024,1024,0,0,98,4.209,4.22,4.211,4.21,4.21,4.204,4.893,54.32,1038.1566779061,0,10,Assisted_Takeoff,
13400,2021-01-16 18:15:38,36.1624194634654,-96.8360128912158,0,0,1038.1566779061,1038.1566779061,0,0,0.795275616,14,5,24.466,1038.4847619061,0.328084,0,0.8065617056,0,0,0,204, 3.2, -0.9,0,0,1024,1024,1049,1024,0,0,98,4.209,4.22,4.211,4.21,4.21,4.204,4.893,54.32,1038.1566779061,0,10,Assisted_Takeoff,
13500,2021-01-16 18:15:39,36.1624194693954,-96.8360128854714,0,0,1038.1566779061,1038.1566779061,0,0,0.79440947424,14,5,24.466,1038.4847619061,0.328084,0,0.8065617056,0,0,0,204, 3.2, -0.9,0,0,1024,1024,1063,1024,0,0,98,4.209,4.22,4.211,4.21,4.21,4.204,4.893,54.32,1038.1566779061,0,10,Assisted_Takeoff,
13600,2021-01-16 18:15:39,36.1624195333843,-96.8360128588224,0,0,1038.1566779061,1038.1566779061,0,0,0.7953084244,14,5,24.466,1038.4847619061,0.328084,0,0.8065617056,0,0,0,204, 3.3, -0.9,0,0,1024,1024,1062,1024,0,0,98,4.209,4.22,4.211,4.21,4.21,4.204,4.893,54.32,1038.1566779061,0,10,Assisted_Takeoff,
13700,2021-01-16 18:15:39,36.1624195765869,-96.8360128174603,0,0,1038.1566779061,1038.1566779061,0,0,0.79000330612,14,5,24.466,1038.4847619061,0.328084,0,0.8065617056,0,0,0,204, 3.3, -0.9,0,0,1024,1024,1060,1024,0,0,98,4.209,4.22,4.211,4.21,4.21,4.204,4.893,54.32,1038.1566779061,0,10,Assisted_Takeoff,
13800,2021-01-16 18:15:39,36.1624196225171,-96.8360128008399,0,0,1038.1566779061,1038.1566779061,0,0,0.79221787312,14,5,24.466,1038.4847619061,0.328084,0,0.8065617056,0,0,0,204, 3.5, -0.9,0,0,1024,1024,1075,1024,0,0,98,4.209,4.22,4.211,4.21,4.21,4.204,4.893,54.32,1038.1566779061,0,10,Assisted_Takeoff,
13900,2021-01-16 18:15:39,36.1624196580311,-96.8360127692436,0,0,1038.1566779061,1038.1566779061,0,0,0.78919621948,14,5,24.466,1038.4847619061,0.328084,0,0.8065617056,0,0,0,204, 3.5, -0.9,0,0,1024,1024,1086,1024,0,0,98,4.209,4.22,4.211,4.21,4.21,4.204,4.893,54.32,1038.1566779061,0,10,Assisted_Takeoff,
14000,2021-01-16 18:15:39,36.1624196760351,-96.8360127767176,0,0,1038.1566779061,1038.1566779061,0,0,0.7940124926,14,5,24.466,1038.4847619061,0.328084,0,0.8065617056,0,0,0,204, 3.4, -0.9,0,0,1024,1024,1090,1024,0,0,98,4.209,4.22,4.211,4.21,4.21,4.204,4.893,54.32,1038.1566779061,0,10,Assisted_Takeoff,
14100,2021-01-16 18:15:39,36.1624196832443,-96.8360127629568,0,0,1038.1566779061,1038.1566779061,0,0,0.79151249252,14,5,24.466,1038.4847619061,0.328084,0,0.8065617056,0,0,0,204, 3.3, -0.9,0,0,1024,1024,1093,1024,0,0,98,4.209,4.22,4.211,4.21,4.21,4.204,4.893,54.32,1038.1566779061,0,10,Assisted_Takeoff,
14200,2021-01-16 18:15:39,36.162419670544,-96.8360127913445,0,0,1038.1566779061,1038.1566779061,0,0,0.79703414624,14,5,24.466,1038.4847619061,0.328084,0,0.8065617056,0,0,0,204, 3.1, -0.9,0,0,1024,1024,1107,1024,0,0,98,4.209,4.22,4.211,4.21,4.21,4.204,4.893,54.32,1038.1566779061,0,10,Assisted_Takeoff,
14300,2021-01-16 18:15:39,36.1624196727758,-96.8360127842844,0,0,1038.1566779061,1038.1566779061,0,0,0.79550855564,14,5,24.466,1038.4847619061,0.328084,0,0.8065617056,0,0,0,204, 3.1, -0.9,0,0,1024,1024,1108,1024,0,0,98,4.209,4.22,4.211,4.21,4.21,4.204,4.893,54.32,1038.1566779061,0,10,Assisted_Takeoff,
14400,2021-01-16 18:15:40,36.1624196612774,-96.83601281246,0,0,1038.1566779061,1038.1566779061,0,0,0.80122049808,14,5,24.466,1038.4847619061,0.328084,0,0.8065617056,0,0,0,203.9, 2.8, -0.9,0,0,1024,1024,1110,1024,0,0,98,4.209,4.22,4.211,4.21,4.21,4.204,4.893,54.32,1038.1566779061,0,10,Assisted_Takeoff,
14500,2021-01-16 18:15:40,36.1624196459301,-96.8360128183556,0,0,1038.1566779061,1038.1566779061,0,0,0.80044621984,14,5,24.466,1038.4847619061,0.328084,0,0.8065617056,0,0,0,203.9, 2.5, -0.9,0,0,1024,1024,1090,1024,0,0,98,4.209,4.22,4.211,4.21,4.21,4.204,4.893,54.32,1038.1566779061,0,10,Assisted_Takeoff,
14600,2021-01-16 18:15:40,36.1624196234275,-96.8360127981726,0,0,1038.1566779061,1038.1566779061,0,0,0.79163716444,14,5,24.466,1038.4847619061,0.328084,0,0.8065617056,0,0,0,203.9, 2.1, -0.9,0,0,1024,1024,1048,1024,0,0,98,4.209,4.22,4.211,4.21,4.21,4.204,4.893,54.32,1038.1566779061,0,10,Assisted_Takeoff,
14700,2021-01-16 18:15:40,36.1624196048697,-96.8360127716642,0,0,1038.1566779061,1038.1566779061,0,0,0.781742151,14,5,24.466,1038.4847619061,0.328084,0,0.8065617056,0,0,0,203.8, 1.7, -0.9,0,0,1024,1024,1024,1024,0,0,98,4.209,4.22,4.211,4.21,4.21,4.204,4.893,54.32,1038.1566779061,0,10,Assisted_Takeoff,
14800,2021-01-16 18:15:40,36.1624195439024,-96.8360127643919,0,0,1038.1566779061,1038.1566779061,0,0,0.77097443412,14,5,24.466,1038.4847619061,0.328084,0,0.8065617056,0,0,0,203.8, 1.6, -0.9,0,0,1024,1024,1027,1024,0,0,98,4.209,4.22,4.211,4.21,4.21,4.204,4.893,54.32,1038.1566779061,0,10,Assisted_Takeoff,
14900,2021-01-16 18:15:40,36.1624195211929,-96.8360127402232,0,0,1038.1566779061,1038.1566779061,0,0,0.76123362016,14,5,24.466,1038.4847619061,0.328084,0,0.8065617056,0,0,0,203.8, 1.7, -0.9,0,0,1024,1024,1054,1024,0,0,98,4.209,4.22,4.211,4.21,4.21,4.204,4.893,54.32,1038.1566779061,0,10,Assisted_Takeoff,
15000,2021-01-16 18:15:40,36.162419538176,-96.836012718865,0,0,1038.1566779061,1038.1566779061,0,0,0.75779529984,14,5,24.466,1038.4847619061,0.328084,0,0.8065617056,0,0,0,203.8, 2, -0.9,0,0,1024,1024,1081,1024,0,0,98,4.209,4.22,4.211,4.21,4.21,4.204,4.893,54.32,1038.1566779061,0,10,Assisted_Takeoff,
15100,2021-01-16 18:15:40,36.1624195716527,-96.8360126762946,0,0,1038.1566779061,1038.1566779061,0,0,0.75115159884,14,5,24.466,1038.4847619061,0.328084,0,0.8065617056,0,0,0,203.9, 2.5, -0.9,0,0,1024,1024,1092,1024,0,0,98,4.209,4.22,4.211,4.21,4.21,4.204,4.893,54.32,1038.1566779061,0,10,Assisted_Takeoff,
15200,2021-01-16 18:15:40,36.1624196416693,-96.8360125912307,0,0,1038.1566779061,1038.1566779061,0,0,0.73944884256,14,5,24.466,1038.4847619061,0.328084,0,0.8065617056,0,0,0,204, 3, -0.9,0,0,1024,1024,1099,1024,0,0,98,4.209,4.22,4.211,4.21,4.21,4.204,4.893,54.32,1038.1566779061,0,10,Assisted_Takeoff,
15300,2021-01-16 18:15:41,36.1624197080552,-96.8360125044094,0,0,1038.1566779061,1038.1566779061,0,0,0.7282152464,14,5,24.466,1038.4847619061,0.328084,0,0.8065617056,0,0,0,204, 3.3, -1,0,0,1024,1024,1121,1024,0,0,98,4.209,4.22,4.211,4.21,4.21,4.204,4.893,54.32,1038.1566779061,0,10,Assisted_Takeoff,
15400,2021-01-16 18:15:41,36.1624197782281,-96.8360124772219,0,0,1038.1566779061,1038.1566779061,0,0,0.73421262192,14,5,24.466,1038.4847619061,0.328084,0,0.8065617056,0,0,0,203.9, 3.2, -0.9,0,0,1024,1024,1140,1024,0,0,98,4.209,4.22,4.211,4.21,4.21,4.204,4.893,54.32,1038.1566779061,0,10,Assisted_Takeoff,
15500,2021-01-16 18:15:41,36.1624198044469,-96.8360124504748,0,0,1038.1566779061,1038.1566779061,0,0,0.73255907856,14,5,24.466,1038.4847619061,0.328084,0,0.8065617056,0,0,0,203.9, 2.7, -0.9,0,0,1024,1024,1153,1024,0,0,98,4.209,4.22,4.211,4.21,4.21,4.204,4.893,54.32,1038.1566779061,0,10,Assisted_Takeoff,
15600,2021-01-16 18:15:41,36.1624198014693,-96.836012503599,0,0,1038.1566779061,1038.1566779061,0,0,0.74526577188,14,5,24.466,1038.4847619061,0.328084,0,0.8065617056,0,0,0,203.9, 2.2, -0.9,0,0,1024,1024,1146,1024,0,0,98,4.209,4.22,4.211,4.21,4.21,4.204,4.893,54.32,1038.1566779061,0,10,Assisted_Takeoff,
15700,2021-01-16 18:15:41,36.1624197897974,-96.8360125195682,0,0,1038.1566779061,1038.1566779061,0,0,0.74707023388,14,5,24.466,1038.4847619061,0.328084,0,0.8065617056,0,0,0,203.8, 1.6, -0.9,0,0,1024,1024,1142,1024,0,0,98,4.209,4.22,4.211,4.21,4.21,4.204,4.893,54.32,1038.1566779061,0,10,Assisted_Takeoff,
15800,2021-01-16 18:15:41,36.1624196963182,-96.8360125978518,0,0,1038.1566779061,1038.1566779061,0,0,0.750328108,14,5,24.466,1038.4847619061,0.328084,0,0.8065617056,0,0,0,203.8, 1.3, -0.9,0,0,1024,1024,1148,1024,0,0,98,4.209,4.22,4.211,4.21,4.21,4.204,4.893,54.32,1038.1566779061,0,10,Assisted_Takeoff,
15900,2021-01-16 18:15:41,36.1624196432562,-96.8360126195495,0,0,1038.1566779061,1038.1566779061,0,0,0.74716865908,14,5,24.466,1038.4847619061,0.328084,0,0.8065617056,0,0,0,203.8, 1, -1,0,0,1024,1024,1148,1024,0,0,98,4.209,4.22,4.211,4.21,4.21,4.204,4.893,54.32,1038.1566779061,0,10,Assisted_Takeoff,
16000,2021-01-16 18:15:41,36.1624195514502,-96.8360125884003,0,0,1038.1566779061,1038.1566779061,0,0,0.72451445888,14,5,24.466,1038.4847619061,0.328084,0,0.8065617056,0,0,-0.223694,203.8, 0.9, -1.3,0,0,1024,1024,1148,1024,0,0,98,4.209,4.22,4.211,4.21,4.21,4.204,4.893,54.32,1038.1566779061,0,10,Assisted_Takeoff,
16100,2021-01-16 18:15:41,36.1624194627668,-96.8360125096537,0,0,1038.1566779061,1038.1566779061,0,0,0.69032482524,14,5,24.466,1038.4847619061,0.328084,0,0.8065617056,0,0,-0.223694,203.7, 0.6, -1.7,0,0,1024,1024,1128,1024,0,0,98,4.209,4.22,4.211,4.21,4.21,4.204,4.893,54.32,1038.1566779061,0,10,Assisted_Takeoff,
16200,2021-01-16 18:15:41,36.1624193667155,-96.8360123928132,0,0,1038.1566779061,1038.1566779061,0,0.3131716,0.64532810464,14,5,24.466,1038.4847619061,0.328084,0.3131716,0.8065617056,-0.223694,0.223694,-0.447388,203.7, 0.5, -1.9,0,0,1024,1024,1107,1024,0,0,98,4.209,4.22,4.211,4.21,4.21,4.204,4.893,54.32,1038.1566779061,0,6,P-GPS,
16300,2021-01-16 18:15:41,36.1624192231404,-96.8360122325481,0,0,1038.1566779061,1038.1566779061,0,0.3131716,0.5833497562,14,5,24.466,1038.4847619061,0.328084,0.3131716,0.8065617056,-0.223694,0.223694,-0.671082,203.7, 0.6, -1.3,0,0,1024,1024,1106,1024,0,0,98,4.209,4.22,4.211,4.21,4.21,4.204,4.893,54.32,1038.1566779061,0,6,P-GPS,
16400,2021-01-16 18:15:42,36.1624190131135,-96.8360119613182,0.328084,0.328084,1038.1566779061,1038.4847619061,0,0.4921268,0.4862040838,14,5,24.466,1038.4847619061,0.328084,0.4921268,0.8065617056,-0.447388,0.223694,-0.447388,203.7, 0.8, -0.7,0,0,1024,1024,1106,1024,0,0,98,4.209,4.22,4.211,4.21,4.21,4.204,4.893,54.32,1038.4847619061,0.328084,6,P-GPS,
16500,2021-01-16 18:15:42,36.1624187580121,-96.8360117106865,0.328084,0.328084,1038.1566779061,1038.4847619061,0,0.7158208,0.40156825432,14,5,24.466,1038.4847619061,0.328084,0.7158208,0.8065617056,-0.671082,0.223694,-0.447388,203.7, 0.9, 0,0,0,1024,1024,1104,1024,0,0,98,4.209,4.22,4.211,4.21,4.21,4.204,4.893,54.32,1038.4847619061,0.328084,6,P-GPS,
16600,2021-01-16 18:15:42,36.1624183600847,-96.8360114287901,0.328084,0.36089239999997,1038.1238695061,1038.4847619061,0,0.7158208,0.34616799008,14,5,24.466,1038.4847619061,0.328084,0.7158208,0.8065617056,-0.671082,0.223694,-0.447388,203.7, 1.2, 0.5,0,0,1024,1024,1095,1024,0,0,98,4.209,4.22,4.211,4.21,4.21,4.204,4.893,54.32,1038.4847619061,0.328084,6,P-GPS,
16700,2021-01-16 18:15:42,36.1624179700593,-96.8360111867279,0.656168,0.68897639999997,1038.1238695061,1038.8128459061,0,0.7158208,0.37202757096,14,5,24.4595,1038.8128459061,0.656168,0.7158208,0.8065617056,-0.671082,0.223694,-0.447388,203.7, 1.5, 1,0,0,1024,1024,1100,1024,0,0,98,4.156,4.197,4.165,4.169,4.197,4.135,4.915,54.32,1038.8128459061,0.656168,6,P-GPS,
16800,2021-01-16 18:15:42,36.1624175233559,-96.8360108700096,0.656168,0.68897639999997,1038.1238695061,1038.8128459061,0,0.9171454,0.46712928004,14,5,24.4595,1038.8128459061,0.656168,0.9171454,0.8065617056,-0.894776,0.223694,-0.223694,203.7, 1.9, 1.6,0,0,1024,1024,1106,1024,0,0,98,4.156,4.197,4.165,4.169,4.197,4.135,4.915,54.32,1038.8128459061,0.656168,6,P-GPS,
16900,2021-01-16 18:15:42,36.1624170957209,-96.83601060871,0.656168,0.72178480000013,1038.0910611061,1038.8128459061,0,0.9171454,0.60202429748,14,5,24.4595,1038.8128459061,0.656168,0.9171454,0.8065617056,-0.894776,0.223694,-0.223694,203.7, 2.1, 2,0,0,1024,1024,1122,1024,0,0,98,4.156,4.197,4.165,4.169,4.197,4.135,4.915,54.32,1038.8128459061,0.656168,6,P-GPS,Setting new Return-To-Home altitude to 20m (66 ft). Data Recorder File Index is 608. Setting new Maximum Flight Altitude to 500m (1640 ft)
17000,2021-01-16 18:15:42,36.1624166437739,-96.8360103098258,0.656168,0.72178480000013,1038.0910611061,1038.8128459061,0,0.9171454,0.7620735152,14,5,24.4595,1038.8128459061,0.656168,0.9171454,0.8065617056,-0.894776,0.223694,-0.223694,203.7, 2.3, 2.3,0,0,1024,1024,1134,1024,0,0,98,4.156,4.197,4.165,4.169,4.197,4.135,4.915,54.32,1038.8128459061,0.656168,6,P-GPS,
17100,2021-01-16 18:15:42,36.1624162130513,-96.8360100703871,0.656168,0.72178480000013,1038.0910611061,1038.8128459061,0,0.9171454,0.92276249672,14,5,24.4595,1038.8128459061,0.656168,0.9171454,0.92276249672,-0.894776,0.223694,-0.223694,203.7, 2.5, 2.2,0,0,1024,1024,1140,1024,0,0,98,4.156,4.197,4.165,4.169,4.197,4.135,4.915,54.32,1038.8128459061,0.656168,6,P-GPS,
17200,2021-01-16 18:15:42,36.1624157827863,-96.8360097589132,0.656168,0.72178480000013,1038.0910611061,1038.8128459061,0,0.9171454,1.0900098774,14,5,24.4595,1038.8128459061,0.656168,0.9171454,1.0900098774,-0.894776,0.223694,-0.223694,203.7, 2.8, 2,0,0,1024,1024,1145,1024,0,0,98,4.156,4.197,4.165,4.169,4.197,4.135,4.915,54.32,1038.8128459061,0.656168,6,P-GPS,
17300,2021-01-16 18:15:43,36.1624153683648,-96.8360095032201,0.656168,0.7545932000001,1038.0582527061,1038.8128459061,0,0.7158208,1.2522802238,14,5,24.4595,1038.8128459061,0.656168,0.9171454,1.2522802238,-0.671082,0.223694,-0.447388,203.8, 3.3, 2,0,0,1024,1024,1147,1024,0,0,98,4.156,4.197,4.165,4.169,4.197,4.135,4.915,54.32,1038.8128459061,0.656168,6,P-GPS,
17400,2021-01-16 18:15:43,36.1624150064679,-96.8360092058453,0.984252,1.0826772000001,1038.0582527061,1039.1409299061,0,0.7158208,1.40035765636,13,4,24.4595,1039.1409299061,0.984252,0.9171454,1.40035765636,-0.671082,0.223694,-0.447388,203.8, 3.7, 2.2,0,0,1024,1024,1149,1024,0,0,98,4.156,4.197,4.165,4.169,4.197,4.135,4.915,54.32,1039.1409299061,0.984252,6,P-GPS,
17500,2021-01-16 18:15:43,36.1624146577517,-96.8360089493299,0.984252,1.0826772000001,1038.0582527061,1039.1409299061,0,0.7158208,1.54260503624,13,4,24.4595,1039.1409299061,0.984252,0.9171454,1.54260503624,-0.671082,0.223694,-0.447388,203.8, 3.9, 2.5,0,0,1024,1024,1158,1024,0,0,98,4.156,4.197,4.165,4.169,4.197,4.135,4.915,54.32,1039.1409299061,0.984252,6,P-GPS,
17600,2021-01-16 18:15:43,36.162414380501,-96.8360086614384,0.984252,1.1154856000001,1038.0254443061,1039.1409299061,0,0.7158208,1.663631943,13,4,24.4595,1039.1409299061,0.984252,0.9171454,1.663631943,-0.671082,0.223694,-0.671082,203.8, 3.8, 3,0,0,1024,1024,1163,1024,0,0,98,4.156,4.197,4.165,4.169,4.197,4.135,4.915,54.32,1039.1409299061,0.984252,6,P-GPS,
17700,2021-01-16 18:15:43,36.1624140967474,-96.8360084125893,1.312336,1.4435696000001,1038.0254443061,1039.4690139061,0,0.7158208,1.78475071328,13,4,24.4595,1039.4690139061,1.312336,0.9171454,1.78475071328,-0.671082,0.223694,-0.671082,203.8, 3.6, 3.1,0,0,1024,1024,1168,1024,0,0,98,4.156,4.197,4.165,4.169,4.197,4.135,4.915,54.32,1039.4690139061,1.312336,6,P-GPS,
17800,2021-01-16 18:15:43,36.1624138031508,-96.8360081484725,1.312336,1.4435696000001,1038.0254443061,1039.4690139061,0,0.7158208,1.9115158092,13,4,24.4595,1039.4690139061,1.312336,0.9171454,1.9115158092,-0.671082,0.223694,-0.671082,203.8, 3.1, 2.7,0,0,1024,1024,1176,1024,0,0,98,4.156,4.197,4.165,4.169,4.197,4.135,4.915,54.32,1039.4690139061,1.312336,6,P-GPS,
17900,2021-01-16 18:15:43,36.1624135123449,-96.836007930713,1.312336,1.4435696000001,1038.0254443061,1039.4690139061,0,0.7158208,2.03322184984,13,4,24.4595,1039.4690139061,1.312336,0.9171454,2.03322184984,-0.671082,0.223694,-0.894776,203.8, 3.1, 2.5,0,0,1024,1024,1193,1024,0,0,98,4.156,4.197,4.165,4.169,4.197,4.135,4.915,54.32,1039.4690139061,1.312336,6,P-GPS,
18000,2021-01-16 18:15:43,36.1624131600799,-96.8360076854834,1.64042,1.804462,1037.9926359061,1039.7970979061,0,0.7158208,2.1790190986,13,4,24.4595,1039.7970979061,1.64042,0.9171454,2.1790190986,-0.671082,0.223694,-0.894776,203.8, 3.3, 2.4,0,0,1024,1024,1191,1024,0,0,98,4.156,4.197,4.165,4.169,4.197,4.135,4.915,54.32,1039.7970979061,1.64042,6,P-GPS,
18100,2021-01-16 18:15:43,36.1624128353922,-96.8360074750121,1.64042,1.804462,1037.9926359061,1039.7970979061,0,0.7158208,2.31190624196,13,4,24.4595,1039.7970979061,1.64042,0.9171454,2.31190624196,-0.671082,0.223694,-1.11847,203.8, 3.4, 2.4,0,0,1024,1024,1188,1024,0,0,98,4.156,4.197,4.165,4.169,4.197,4.135,4.915,54.32,1039.7970979061,1.64042,6,P-GPS,
18200,2021-01-16 18:15:43,36.1624124564736,-96.8360072379317,1.968504,2.132546,1037.9926359061,1040.1251819061,0,0.7158208,2.46616477708,14,4,24.4595,1040.1251819061,1.968504,0.9171454,2.46616477708,-0.671082,0.223694,-1.11847,203.9, 3.2, 2.4,0,0,1024,1024,1191,1024,0,0,98,4.156,4.197,4.165,4.169,4.197,4.135,4.915,54.32,1040.1251819061,1.968504,6,P-GPS,
18300,2021-01-16 18:15:43,36.1624121261092,-96.8360070280546,2.296588,2.46063,1037.9926359061,1040.4532659061,0,0.7158208,2.6010663562,14,4,24.4595,1040.4532659061,2.296588,0.9171454,2.6010663562,-0.671082,0.223694,-1.342164,203.8, 2.9, 2.6,0,0,1024,1024,1193,1024,0,0,98,4.156,4.197,4.165,4.169,4.197,4.135,4.915,54.32,1040.4532659061,2.296588,6,P-GPS,
18400,2021-01-16 18:15:44,36.1624117060205,-96.8360067702911,2.296588,2.46063,1037.9926359061,1040.4532659061,0,0.7158208,2.77166675536,13,4,24.4595,1040.4532659061,2.296588,0.9171454,2.77166675536,-0.671082,0.223694,-1.342164,203.8, 2.7, 2.6,0,0,1024,1024,1194,1024,0,0,98,4.156,4.197,4.165,4.169,4.197,4.135,4.915,54.32,1040.4532659061,2.296588,6,P-GPS,
18500,2021-01-16 18:15:44,36.1624113568798,-96.8360065617138,2.624672,2.8215224,1037.9598275061,1040.7813499061,0,0.7158208,2.91285442392,13,4,24.4595,1040.7813499061,2.624672,0.9171454,2.91285442392,-0.671082,0.223694,-1.342164,203.8, 2.7, 2.4,0,0,1024,1024,1193,1024,0,0,98,4.156,4.197,4.165,4.169,4.197,4.135,4.915,54.32,1040.7813499061,2.624672,6,P-GPS,
18600,2021-01-16 18:15:44,36.1624109384858,-96.8360063972037,2.952756,3.1496064,1037.9598275061,1041.1094339061,0,0.7158208,3.0724574474,14,4,24.4595,1041.1094339061,2.952756,0.9171454,3.0724574474,-0.671082,0.223694,-1.342164,203.8, 2.8, 2.3,0,0,1024,1024,1195,1024,0,0,98,4.156,4.197,4.165,4.169,4.197,4.135,4.915,54.32,1041.1094339061,2.952756,6,P-GPS,
18700,2021-01-16 18:15:44,36.1624105859578,-96.8360062375341,2.952756,3.1496064,1037.9598275061,1041.1094339061,0,0.7158208,3.20931440716,14,4,24.973,1041.1094339061,2.952756,0.9171454,3.20931440716,-0.671082,0.223694,-1.342164,203.8, 2.9, 2.3,0,0,1024,1024,1193,1024,0,0,98,4.02,4.031,4.022,4.022,4.018,4.018,3.004,53.42,1041.1094339061,2.952756,6,P-GPS,
