time(millisecond),datetime(utc),latitude,longitude,height_above_takeoff(feet),height_above_ground_at_drone_location(feet),ground_elevation_at_drone_location(feet),altitude_above_seaLevel(feet),height_sonar(feet),speed(mph),distance(feet),satellites,gpslevel,voltage(v),max_altitude(feet),max_ascent(feet),max_speed(mph),max_distance(feet), xSpeed(mph), ySpeed(mph), zSpeed(mph), compass_heading(degrees), pitch(degrees), roll(degrees),isPhoto,isVideo,rc_elevator,rc_aileron,rc_throttle,rc_rudder,gimbal_heading(degrees),gimbal_pitch(degrees),battery_percent,voltageCell1,voltageCell2,voltageCell3,voltageCell4,voltageCell5,voltageCell6,current(A),battery_temperature(f),altitude(feet),ascent(feet),flycStateRaw,flycState,message
10,2021-06-25 14:35:25,0,0,5.249344,,,1043.3293273498,5.905512,7.49598594,0,11,0,16.902,1043.3293273498,5.249344,7.49598594,0,0.671082,1.11847,-7.381902,13.6, 6.5, -5.1,0,0,1024,1024,1024,1024,13.4,0,97,4.243,4.242,4.244,4.235,0,0,2.318,84.2,1043.3293273498,5.249344,6,P-GPS,
100,2021-06-25 14:35:25,0,0,6.233596,,,1044.3135793498,6.889764,7.48927512,0,11,0,16.902,1044.3135793498,6.233596,7.49598594,0,0.894776,0.894776,-7.381902,13.6, 5.1, -7.8,0,0,1024,1024,1024,1024,13.4,0,97,4.243,4.242,4.244,4.235,0,0,2.318,84.2,1044.3135793498,6.233596,6,P-GPS,
200,2021-06-25 14:35:25,0,0,7.545932,,,1045.6259153498,8.2021,7.0799151,0,11,0,16.902,1045.6259153498,7.545932,7.49598594,0,1.11847,0.894776,-6.934514,13.5, 6.8, -7.4,0,0,1024,1024,1024,1024,13.4,0,97,4.243,4.242,4.244,4.235,0,0,2.318,84.2,1045.6259153498,7.545932,6,P-GPS,
300,2021-06-25 14:35:25,0,0,8.530184,,,1046.6101673498,9.186352,6.42449168,0,11,0,16.902,1046.6101673498,8.530184,7.49598594,0,1.11847,0.894776,-6.263432,13.5, 8.5, -6.3,0,0,1024,1024,1024,1024,13.5,0,97,4.243,4.242,4.244,4.235,0,0,2.318,84.2,1046.6101673498,8.530184,6,P-GPS,
400,2021-06-25 14:35:25,0,0,9.186352,,,1047.2663353498,9.84252,5.33957578,0,11,0,16.902,1047.2663353498,9.186352,7.49598594,0,1.11847,0.894776,-5.144962,13.5, 9.6, -5.1,0,0,1024,1024,1024,1024,13.5,0,97,4.243,4.242,4.244,4.235,0,0,2.318,84.2,1047.2663353498,9.186352,6,P-GPS,
490,2021-06-25 14:35:25,0,0,9.84252,,,1047.9225033498,10.498688,4.06451998,0,10,0,16.902,1047.9225033498,9.84252,7.49598594,0,1.11847,0.894776,-3.802798,13.5, 10.3, -5.1,0,0,1024,1024,1024,1024,13.5,0,97,4.243,4.242,4.244,4.235,0,0,2.318,84.2,1047.9225033498,9.84252,6,P-GPS,
600,2021-06-25 14:35:25,0,0,10.498688,,,1048.5786713498,11.154856,3.0422384,0,10,0,16.902,1048.5786713498,10.498688,7.49598594,0,1.11847,0.894776,-2.684328,13.5, 10.9, -5.1,0,0,1024,1024,1024,1024,13.5,0,97,4.243,4.242,4.244,4.235,0,0,2.318,84.2,1048.5786713498,10.498688,6,P-GPS,
700,2021-06-25 14:35:25,0,0,10.826772,,,1048.9067553498,11.48294,2.013246,0,11,0,16.902,1048.9067553498,10.826772,7.49598594,0,1.342164,0.671082,-1.342164,13.5, 11.2, -4.3,0,0,1024,1024,1024,1024,13.5,0,97,4.243,4.242,4.244,4.235,0,0,2.318,84.2,1048.9067553498,10.826772,6,P-GPS,
790,2021-06-25 14:35:25,0,0,10.826772,,,1048.9067553498,11.48294,1.6441509,0,11,0,16.902,1048.9067553498,10.826772,7.49598594,0,1.342164,0.671082,-0.671082,13.7, 10.8, -3.3,0,0,1024,1024,1024,1024,13.6,0,97,4.243,4.242,4.244,4.235,0,0,2.318,84.2,1048.9067553498,10.826772,6,P-GPS,
900,2021-06-25 14:35:26,0,0,11.154856,,,1049.2348393498,11.811024,1.51664532,0,11,0,16.902,1049.2348393498,11.154856,7.49598594,0,1.342164,0.671082,-0.223694,13.8, 10.1, -2.7,0,0,1024,1024,1024,1024,13.6,0,97,4.243,4.242,4.244,4.235,0,0,2.318,84.2,1049.2348393498,11.154856,6,P-GPS,
990,2021-06-25 14:35:26,0,0,11.154856,,,1049.2348393498,11.811024,1.30413602,0,11,0,15.788,1049.2348393498,11.154856,7.49598594,0,1.11847,0.671082,0,13.8, 10.1, -2.6,0,0,1024,1024,1024,1024,13.6,0,97,4.243,4.242,4.244,4.235,0,0,2.318,84.2,1049.2348393498,11.154856,6,P-GPS,
1090,2021-06-25 14:35:26,0,0,11.154856,,,1049.2348393498,11.811024,1.30413602,0,11,0,15.788,1049.2348393498,11.154856,7.49598594,0,1.11847,0.671082,0,13.8, 10.3, -2.7,0,0,1024,1024,1024,1024,13.6,0,97,4.243,4.242,4.244,4.235,0,0,2.318,84.2,1049.2348393498,11.154856,6,P-GPS,
1200,2021-06-25 14:35:26,0,0,11.154856,,,1049.2348393498,11.811024,1.20571066,0,11,0,15.788,1049.2348393498,11.154856,7.49598594,0,1.11847,0.447388,0,13.7, 9.9, -3.6,0,0,1024,1024,1024,1024,13.6,0,97,4.243,4.242,4.244,4.235,0,0,2.318,84.2,1049.2348393498,11.154856,6,P-GPS,
1400,2021-06-25 14:35:26,0,0,11.154856,,,1049.2348393498,11.811024,1.1408394,0,11,0,15.788,1049.2348393498,11.154856,7.49598594,0,1.11847,0.223694,0,13.8, 9.4, -2.5,0,0,1024,1024,1024,1024,13.6,0,97,4.243,4.242,4.244,4.235,0,0,2.318,84.2,1049.2348393498,11.154856,6,P-GPS,
1500,2021-06-25 14:35:26,0,0,11.154856,,,1049.2348393498,11.811024,0.92161928,0,11,0,15.788,1049.2348393498,11.154856,7.49598594,0,0.894776,0.223694,0,13.8, 9.6, -1.6,0,0,1024,1024,1024,1024,13.6,0,97,4.243,4.242,4.244,4.235,0,0,2.318,84.2,1049.2348393498,11.154856,6,P-GPS,
1600,2021-06-25 14:35:26,0,0,11.154856,,,1049.2348393498,11.811024,0.70687304,0,11,0,15.788,1049.2348393498,11.154856,7.49598594,0,0.671082,0.223694,0,13.9, 9.8, -0.7,0,0,1024,1024,1024,1024,13.6,0,97,4.243,4.242,4.244,4.235,0,0,2.318,84.2,1049.2348393498,11.154856,6,P-GPS,
2180,2021-06-25 14:35:27,0,0,11.154856,,,1049.2348393498,11.811024,0.80753534,0,11,0,15.788,1049.2348393498,11.154856,7.49598594,0,0.671082,0.447388,0,14, 9.6, -0.8,0,0,1024,1024,1024,1024,13.6,0,97,4.243,4.242,4.244,4.235,0,0,2.318,84.2,1049.2348393498,11.154856,6,P-GPS,
2190,2021-06-25 14:35:27,0,0,11.154856,,,1049.2348393498,11.811024,0.70687304,0,11,0,15.788,1049.2348393498,11.154856,7.49598594,0,0.671082,0.223694,0,13.8, 9.3, -1.7,0,0,1024,1024,1024,1024,13.7,0,97,4.243,4.242,4.244,4.235,0,0,2.318,84.2,1049.2348393498,11.154856,6,P-GPS,
2250,2021-06-25 14:35:27,0,0,11.154856,,,1049.2348393498,11.811024,0.80753534,0,11,0,15.788,1049.2348393498,11.154856,7.49598594,0,0.671082,0.447388,0,13.8, 9.7, -3.1,0,0,1024,1024,1024,1024,13.7,0,97,4.243,4.242,4.244,4.235,0,0,2.318,84.2,1049.2348393498,11.154856,6,P-GPS,
2360,2021-06-25 14:35:27,0,0,11.154856,,,1049.2348393498,11.48294,0.80753534,0,11,0,15.788,1049.2348393498,11.154856,7.49598594,0,0.671082,0.447388,0,13.8, 9.8, -2.5,0,0,1024,1024,1024,1024,13.7,0,97,4.243,4.242,4.244,4.235,0,0,2.318,84.2,1049.2348393498,11.154856,6,P-GPS,
2480,2021-06-25 14:35:27,0,0,11.154856,,,1049.2348393498,11.48294,0.80753534,0,11,0,15.788,1049.2348393498,11.154856,7.49598594,0,0.671082,0.447388,0,13.8, 9.4, -2.1,0,0,1024,1024,1024,1024,13.7,0,97,4.243,4.242,4.244,4.235,0,0,2.318,84.2,1049.2348393498,11.154856,6,P-GPS,
2520,2021-06-25 14:35:27,0,0,10.826772,,,1048.9067553498,11.48294,0.671082,0,11,0,15.788,1049.2348393498,11.154856,7.49598594,0,0.447388,0.447388,0.223694,13.8, 9.1, -2.7,0,0,1024,1024,1024,1024,13.7,0,97,4.243,4.242,4.244,4.235,0,0,2.318,84.2,1048.9067553498,10.826772,6,P-GPS,
2610,2021-06-25 14:35:27,0,0,10.826772,,,1048.9067553498,11.48294,0.671082,0,11,0,15.788,1049.2348393498,11.154856,7.49598594,0,0.447388,0.447388,0.223694,13.8, 9, -4,0,0,1024,1024,1024,1024,13.7,0,97,4.243,4.242,4.244,4.235,0,0,2.318,84.2,1048.9067553498,10.826772,6,P-GPS,
2800,2021-06-25 14:35:27,36.162452,-96.835598,10.826772,10.826772,1038.0799833498,1048.9067553498,11.48294,0.671082,0,11,0,15.788,1049.2348393498,11.154856,7.49598594,0,0.671082,0,0,13.7, 8.7, -2.8,0,0,1024,1024,1024,1024,13.7,0,97,4.243,4.242,4.244,4.235,0,0,2.318,84.2,1048.9067553498,10.826772,6,P-GPS,
2930,2021-06-25 14:35:28,36.162452,-96.835597,10.826772,10.8595804,1038.0471749498,1048.9067553498,11.48294,0.70687304,0.294560048796,11,0,15.788,1049.2348393498,11.154856,7.49598594,0.294560048796,0.671082,0.223694,0,13.8, 8.7, -2,0,0,1024,1024,1024,1024,13.7,0,97,4.243,4.242,4.244,4.235,0,0,2.318,84.2,1048.9067553498,10.826772,6,P-GPS,
3000,2021-06-25 14:35:28,36.162452,-96.835597,10.826772,10.8595804,1038.0471749498,1048.9067553498,11.48294,0.50107456,0.294560048796,11,0,15.869,1049.2348393498,11.154856,7.49598594,0.294560048796,0.447388,0.223694,0,13.7, 8.9, -1.8,0,0,1024,1024,1024,1024,13.7,0,97,3.878,3.859,3.863,3.821,0,0,9.49,84.2,1048.9067553498,10.826772,6,P-GPS,
3110,2021-06-25 14:35:28,36.162453,-96.835597,10.826772,10.8595804,1038.0471749498,1048.9067553498,11.48294,0.50107456,0.468914057,11,0,15.869,1049.2348393498,11.154856,7.49598594,0.468914057,0.447388,0.223694,0,13.7, 8.9, -1.5,0,0,1024,1024,1024,1024,13.7,0,97,3.878,3.859,3.863,3.821,0,0,9.49,84.2,1048.9067553498,10.826772,6,P-GPS,
3200,2021-06-25 14:35:28,36.162453,-96.835597,10.826772,10.8595804,1038.0471749498,1048.9067553498,11.48294,0.50107456,0.468914057,11,0,15.869,1049.2348393498,11.154856,7.49598594,0.468914057,0.447388,0.223694,0,13.7, 8.5, -1.7,0,0,1024,1024,1024,1024,13.7,0,97,3.878,3.859,3.863,3.821,0,0,9.49,84.2,1048.9067553498,10.826772,6,P-GPS,
3620,2021-06-25 14:35:28,36.162453,-96.835597,10.826772,10.8595804,1038.0471749498,1048.9067553498,11.48294,0.447388,0.468914057,11,0,15.869,1049.2348393498,11.154856,7.49598594,0.468914057,0.447388,0,0,13.6, 8.4, -1.4,0,0,1024,1024,1024,1024,13.7,0,97,3.878,3.859,3.863,3.821,0,0,9.49,84.2,1048.9067553498,10.826772,6,P-GPS,
3640,2021-06-25 14:35:28,36.162453,-96.835597,10.826772,10.8595804,1038.0471749498,1048.9067553498,11.48294,0.50107456,0.468914057,11,0,15.869,1049.2348393498,11.154856,7.49598594,0.468914057,0.447388,0,-0.223694,13.8, 9.6, -1.8,0,0,1024,1024,1024,1024,13.7,0,97,3.878,3.859,3.863,3.821,0,0,9.49,84.2,1048.9067553498,10.826772,6,P-GPS,
3750,2021-06-25 14:35:28,36.162453,-96.835597,10.826772,10.8595804,1038.0471749498,1048.9067553498,11.48294,0.63305402,0.468914057,11,0,15.869,1049.2348393498,11.154856,7.49598594,0.468914057,0.447388,0,-0.447388,13.7, 9.1, -2.2,0,0,1024,1024,1024,1024,13.7,0,97,3.878,3.859,3.863,3.821,0,0,9.49,84.2,1048.9067553498,10.826772,6,P-GPS,
3760,2021-06-25 14:35:28,36.162453,-96.835597,10.826772,10.8595804,1038.0471749498,1048.9067553498,11.48294,0.447388,0.468914057,11,0,15.869,1049.2348393498,11.154856,7.49598594,0.468914057,0.447388,0,0,13.6, 8.3, -2.2,0,0,1024,1024,1024,1024,13.7,0,97,3.878,3.859,3.863,3.821,0,0,9.49,84.2,1048.9067553498,10.826772,6,P-GPS,
3870,2021-06-25 14:35:28,36.162453,-96.835597,10.826772,10.8595804,1038.0471749498,1048.9067553498,11.48294,0.671082,0.468914057,11,0,15.869,1049.2348393498,11.154856,7.49598594,0.468914057,0.671082,0,0,13.6, 8, -2.2,0,0,1024,1024,1024,1024,13.7,0,97,3.878,3.859,3.863,3.821,0,0,9.49,84.2,1048.9067553498,10.826772,6,P-GPS,
3990,2021-06-25 14:35:29,36.162453,-96.835597,10.826772,10.8595804,1038.0471749498,1048.9067553498,11.48294,0.671082,0.468914057,11,0,15.76,1049.2348393498,11.154856,7.49598594,0.468914057,0.671082,0,0,13.5, 8.3, -1.7,0,0,1024,1024,1024,1024,13.7,0,97,3.878,3.859,3.863,3.821,0,0,14.146,84.2,1048.9067553498,10.826772,6,P-GPS,
4510,2021-06-25 14:35:29,36.162453,-96.835597,10.498688,10.5314964,1038.0471749498,1048.5786713498,11.48294,0.671082,0.468914057,11,0,15.76,1049.2348393498,11.154856,7.49598594,0.468914057,0.671082,0,0,13.6, 9.3, -1.2,0,0,1024,1024,1024,1024,13.7,0,97,3.878,3.859,3.863,3.821,0,0,14.146,84.2,1048.5786713498,10.498688,6,P-GPS,
4530,2021-06-25 14:35:29,36.162454,-96.835597,10.498688,10.498688,1038.0799833498,1048.5786713498,11.48294,0.447388,0.786909474,11,0,15.76,1049.2348393498,11.154856,7.49598594,0.786909474,0.447388,0,0,13.6, 9.5, -0.6,0,0,1024,1024,1024,1024,13.7,0,97,3.878,3.859,3.863,3.821,0,0,14.146,84.2,1048.5786713498,10.498688,6,P-GPS,
4550,2021-06-25 14:35:29,36.162454,-96.835597,10.498688,10.498688,1038.0799833498,1048.5786713498,11.48294,0.447388,0.786909474,11,0,15.76,1049.2348393498,11.154856,7.49598594,0.786909474,0.447388,0,0,13.6, 9.4, -0.6,0,0,1024,1024,1024,1024,13.7,0,97,3.878,3.859,3.863,3.821,0,0,14.146,84.2,1048.5786713498,10.498688,6,P-GPS,
4570,2021-06-25 14:35:29,36.162454,-96.835597,10.498688,10.498688,1038.0799833498,1048.5786713498,11.48294,0.447388,0.786909474,11,0,15.76,1049.2348393498,11.154856,7.49598594,0.786909474,0.447388,0,0,13.6, 8.7, -1.3,0,0,1024,1024,1024,1024,13.7,0,97,3.878,3.859,3.863,3.821,0,0,14.146,84.2,1048.5786713498,10.498688,6,P-GPS,
4780,2021-06-25 14:35:29,36.162454,-96.835597,10.498688,10.498688,1038.0799833498,1048.5786713498,11.48294,0.447388,0.786909474,11,0,15.76,1049.2348393498,11.154856,7.49598594,0.786909474,0.447388,0,0,13.5, 8.6, -1.4,0,0,1024,1024,1024,1024,13.7,0,97,3.878,3.859,3.863,3.821,0,0,14.146,84.2,1048.5786713498,10.498688,6,P-GPS,
4940,2021-06-25 14:35:30,36.162454,-96.835597,10.498688,10.498688,1038.0799833498,1048.5786713498,11.48294,0.447388,0.786909474,11,0,15.76,1049.2348393498,11.154856,7.49598594,0.786909474,0.447388,0,0,13.5, 9.1, -0.7,0,0,1024,1024,1024,1024,13.8,0,97,3.878,3.859,3.863,3.821,0,0,14.146,84.2,1048.5786713498,10.498688,6,P-GPS,
5000,2021-06-25 14:35:30,36.162455,-96.835597,10.170604,10.170604,1038.0799833498,1048.2505873498,11.811024,0.447388,1.13349084992,11,0,15.733,1049.2348393498,11.154856,7.49598594,1.13349084992,0.447388,0,0,13.6, 9.1, 0,0,0,1024,1024,1024,1024,13.7,0,97,3.878,3.859,3.863,3.821,0,0,14.146,84.2,1048.2505873498,10.170604,6,P-GPS,
5150,2021-06-25 14:35:30,36.162455,-96.835597,10.170604,10.170604,1038.0799833498,1048.2505873498,11.811024,0.447388,1.13349084992,11,0,15.733,1049.2348393498,11.154856,7.49598594,1.13349084992,0.447388,0,0,13.5, 9.1, 0,0,0,1024,1024,1024,1024,13.7,0,97,3.878,3.859,3.863,3.821,0,0,14.146,84.2,1048.2505873498,10.170604,6,P-GPS,
5250,2021-06-25 14:35:30,36.162455,-96.835597,10.170604,10.170604,1038.0799833498,1048.2505873498,11.811024,0.50107456,1.13349084992,11,0,15.733,1049.2348393498,11.154856,7.49598594,1.13349084992,0.447388,0,-0.223694,13.4, 9.5, 0.1,0,0,1024,1024,1024,1024,13.8,0,97,3.878,3.859,3.863,3.821,0,0,14.146,84.2,1048.2505873498,10.170604,6,P-GPS,
5360,2021-06-25 14:35:30,36.162455,-96.835597,10.170604,10.170604,1038.0799833498,1048.2505873498,11.811024,0.50107456,1.13349084992,11,0,15.733,1049.2348393498,11.154856,7.49598594,1.13349084992,0.447388,0,-0.223694,13.6, 10.1, 0.9,0,0,1024,1024,1024,1024,13.7,0,97,3.878,3.859,3.863,3.821,0,0,14.146,84.2,1048.2505873498,10.170604,6,P-GPS,
5450,2021-06-25 14:35:30,36.162455,-96.835597,10.498688,10.498688,1038.0799833498,1048.5786713498,11.811024,0.31540854,1.13349084992,11,0,15.733,1049.2348393498,11.154856,7.49598594,1.13349084992,0.223694,0,-0.223694,13.7, 11.1, 1.3,0,0,1024,1024,1024,1024,13.7,0,97,3.878,3.859,3.863,3.821,0,0,14.146,84.2,1048.5786713498,10.498688,6,P-GPS,
5570,2021-06-25 14:35:30,36.162455,-96.835598,10.498688,10.4658796,1038.1127917498,1048.5786713498,11.811024,0.31540854,1.09454727912,11,0,15.733,1049.2348393498,11.154856,7.49598594,1.13349084992,0.223694,0,-0.223694,13.8, 11.4, 1.3,0,0,1024,1024,1024,1024,13.7,0,97,3.878,3.859,3.863,3.821,0,0,14.146,84.2,1048.5786713498,10.498688,6,P-GPS,
5720,2021-06-25 14:35:30,36.162455,-96.835598,10.498688,10.4658796,1038.1127917498,1048.5786713498,12.139108,0.447388,1.09454727912,11,0,15.733,1049.2348393498,11.154856,7.49598594,1.13349084992,0,0,-0.447388,13.5, 9.2, -1.3,0,0,1024,1024,1024,1024,13.7,0,97,3.878,3.859,3.863,3.821,0,0,14.146,84.2,1048.5786713498,10.498688,6,P-GPS,
5870,2021-06-25 14:35:30,36.162455,-96.835598,10.498688,10.4658796,1038.1127917498,1048.5786713498,12.139108,0.31540854,1.09454727912,11,0,15.733,1049.2348393498,11.154856,7.49598594,1.13349084992,0.223694,0,-0.223694,13.6, 8.2, -0.8,0,0,1024,1024,1024,1024,13.7,0,97,3.878,3.859,3.863,3.821,0,0,14.146,84.2,1048.5786713498,10.498688,6,P-GPS,
5880,2021-06-25 14:35:30,36.162455,-96.835597,10.826772,10.826772,1038.0799833498,1048.9067553498,12.139108,0.31540854,1.13349084992,11,0,15.733,1049.2348393498,11.154856,7.49598594,1.13349084992,0.223694,0,-0.223694,13.6, 8.4, -1.1,0,0,1024,1024,1024,1024,13.7,0,97,3.878,3.859,3.863,3.821,0,0,14.146,84.2,1048.9067553498,10.826772,6,P-GPS,
5900,2021-06-25 14:35:31,36.162455,-96.835597,10.826772,10.826772,1038.0799833498,1048.9067553498,12.139108,0.63305402,1.13349084992,11,0,15.733,1049.2348393498,11.154856,7.49598594,1.13349084992,0.447388,0,-0.447388,13.5, 10.3, -1.2,0,0,1024,1024,1024,1024,13.7,0,97,3.878,3.859,3.863,3.821,0,0,14.146,84.2,1048.9067553498,10.826772,6,P-GPS,
6000,2021-06-25 14:35:31,36.162455,-96.835597,10.826772,10.826772,1038.0799833498,1048.9067553498,12.139108,0.50107456,1.13349084992,11,0,15.706,1049.2348393498,11.154856,7.49598594,1.13349084992,0.223694,0,-0.447388,13.5, 12.3, -0.7,0,0,1024,1024,1024,1024,13.7,0,97,3.878,3.859,3.863,3.821,0,0,13.766,84.2,1048.9067553498,10.826772,6,P-GPS,
6060,2021-06-25 14:35:31,36.162455,-96.835597,11.154856,11.154856,1038.0799833498,1049.2348393498,12.139108,0.671082,1.13349084992,11,0,15.706,1049.2348393498,11.154856,7.49598594,1.13349084992,0,0,-0.671082,13.6, 13.1, 0.1,0,0,1024,1024,1024,1024,13.7,0,97,3.878,3.859,3.863,3.821,0,0,13.766,84.2,1049.2348393498,11.154856,6,P-GPS,
6190,2021-06-25 14:35:31,36.162455,-96.835597,11.48294,11.48294,1038.0799833498,1049.5629233498,12.139108,0.671082,1.13349084992,11,0,15.706,1049.5629233498,11.48294,7.49598594,1.13349084992,0,0,-0.671082,13.8, 12.3, 1.1,0,0,1024,1024,1024,1024,13.7,0,97,3.878,3.859,3.863,3.821,0,0,13.766,84.2,1049.5629233498,11.48294,6,P-GPS,
6330,2021-06-25 14:35:31,36.162455,-96.835597,11.48294,11.48294,1038.0799833498,1049.5629233498,12.139108,0.31540854,1.13349084992,11,0,15.706,1049.5629233498,11.48294,7.49598594,1.13349084992,0,0.223694,-0.223694,13.8, 10.9, 0.7,0,0,1024,1024,1024,1024,13.7,0,97,3.878,3.859,3.863,3.821,0,0,13.766,84.2,1049.5629233498,11.48294,6,P-GPS,
6660,2021-06-25 14:35:31,36.162455,-96.835597,11.48294,11.48294,1038.0799833498,1049.5629233498,12.139108,0.223694,1.13349084992,11,0,15.706,1049.5629233498,11.48294,7.49598594,1.13349084992,0,0.223694,0,14, 8.8, -0.9,0,0,1024,1024,1024,1024,13.7,0,97,3.878,3.859,3.863,3.821,0,0,13.766,84.2,1049.5629233498,11.48294,6,P-GPS,
6780,2021-06-25 14:35:31,36.162455,-96.835597,11.154856,11.154856,1038.0799833498,1049.2348393498,12.139108,0.223694,1.13349084992,11,0,15.706,1049.5629233498,11.48294,7.49598594,1.13349084992,0,0.223694,0,13.7, 6.4, -4.5,0,0,1024,1024,1024,1024,13.7,0,97,3.878,3.859,3.863,3.821,0,0,13.766,84.2,1049.2348393498,11.154856,6,P-GPS,
6910,2021-06-25 14:35:32,36.162455,-96.835596,10.826772,10.826772,1038.0799833498,1048.9067553498,11.811024,0.31540854,1.24301841248,11,0,15.706,1049.5629233498,11.48294,7.49598594,1.24301841248,0.223694,0,0.223694,13.6, 9.6, -1.2,0,0,1024,1024,1024,1024,13.8,0,97,3.878,3.859,3.863,3.821,0,0,13.766,84.2,1048.9067553498,10.826772,6,P-GPS,
6970,2021-06-25 14:35:32,36.162455,-96.835596,10.826772,10.826772,1038.0799833498,1048.9067553498,11.811024,0,1.24301841248,11,0,15.706,1049.5629233498,11.48294,7.49598594,1.24301841248,0,0,0,13.9, 11.8, 1.2,0,0,1024,1024,1024,1024,13.7,0,97,3.878,3.859,3.863,3.821,0,0,13.766,84.2,1048.9067553498,10.826772,6,P-GPS,
7040,2021-06-25 14:35:32,36.162455,-96.835596,10.826772,10.826772,1038.0799833498,1048.9067553498,11.811024,0.31540854,1.24301841248,11,0,15.706,1049.5629233498,11.48294,7.49598594,1.24301841248,0,0.223694,-0.223694,13.9, 12.2, 0.8,0,0,1024,1024,1024,1024,13.7,0,97,3.878,3.859,3.863,3.821,0,0,13.766,84.2,1048.9067553498,10.826772,6,P-GPS,
7170,2021-06-25 14:35:32,36.162454,-96.835596,10.826772,10.8595804,1038.0471749498,1048.9067553498,11.811024,0.38699062,0.937828114,11,0,15.706,1049.5629233498,11.48294,7.49598594,1.24301841248,-0.223694,0.223694,-0.223694,13.7, 10.3, -1.3,0,0,1024,1024,1024,1024,13.7,0,97,3.878,3.859,3.863,3.821,0,0,13.766,84.2,1048.9067553498,10.826772,6,P-GPS,
7330,2021-06-25 14:35:32,36.162454,-96.835596,10.826772,10.8595804,1038.0471749498,1048.9067553498,11.811024,0.223694,0.937828114,11,0,15.706,1049.5629233498,11.48294,7.49598594,1.24301841248,0,0,-0.223694,13.6, 8.3, -2.8,0,0,1024,1024,1024,1024,13.8,0,97,3.878,3.859,3.863,3.821,0,0,13.766,84.2,1048.9067553498,10.826772,6,P-GPS,
7420,2021-06-25 14:35:32,36.162454,-96.835596,10.826772,10.8595804,1038.0471749498,1048.9067553498,11.811024,0.223694,0.937828114,11,0,15.706,1049.5629233498,11.48294,7.49598594,1.24301841248,0,0,0.223694,13.6, 7.9, -2.9,0,0,1024,1024,1024,1024,13.8,0,97,3.878,3.859,3.863,3.821,0,0,13.766,84.2,1048.9067553498,10.826772,6,P-GPS,
7480,2021-06-25 14:35:32,36.162454,-96.835596,10.498688,10.5314964,1038.0471749498,1048.5786713498,11.48294,0.31540854,0.937828114,11,0,15.706,1049.5629233498,11.48294,7.49598594,1.24301841248,0.223694,0,0.223694,13.6, 9.3, -1.9,0,0,1024,1024,1024,1024,13.8,0,97,3.878,3.859,3.863,3.821,0,0,13.766,84.2,1048.5786713498,10.498688,6,P-GPS,
7600,2021-06-25 14:35:32,36.162454,-96.835596,10.498688,10.5314964,1038.0471749498,1048.5786713498,11.48294,0,0.937828114,11,0,15.706,1049.5629233498,11.48294,7.49598594,1.24301841248,0,0,0,13.6, 11.1, -0.6,0,0,1024,1024,1024,1024,13.8,0,97,3.878,3.859,3.863,3.821,0,0,13.766,84.2,1048.5786713498,10.498688,6,P-GPS,
7730,2021-06-25 14:35:32,36.162454,-96.835595,10.498688,10.5643048,1038.0143665498,1048.5786713498,11.48294,0.223694,1.14601709704,11,0,15.706,1049.5629233498,11.48294,7.49598594,1.24301841248,0,0,-0.223694,13.6, 11.5, -0.1,0,0,1024,1024,1024,1024,13.8,0,97,3.878,3.859,3.863,3.821,0,0,13.766,84.2,1048.5786713498,10.498688,6,P-GPS,
7830,2021-06-25 14:35:32,36.162454,-96.835595,10.498688,10.5643048,1038.0143665498,1048.5786713498,11.48294,0.31540854,1.14601709704,11,0,15.706,1049.5629233498,11.48294,7.49598594,1.24301841248,-0.223694,0,-0.223694,13.6, 11, -0.8,0,0,1024,1024,1024,1024,13.8,0,97,3.878,3.859,3.863,3.821,0,0,13.766,84.2,1048.5786713498,10.498688,6,P-GPS,
7990,2021-06-25 14:35:33,36.162454,-96.835595,10.498688,10.5643048,1038.0143665498,1048.5786713498,11.48294,0.223694,1.14601709704,11,0,15.815,1049.5629233498,11.48294,7.49598594,1.24301841248,0,0,-0.223694,13.6, 10.3, -1.6,0,0,1024,1024,1024,1024,13.8,0,96,3.878,3.859,3.863,3.821,0,0,13.204,84.2,1048.5786713498,10.498688,6,P-GPS,
8070,2021-06-25 14:35:33,36.162454,-96.835595,10.498688,10.5643048,1038.0143665498,1048.5786713498,11.48294,0,1.14601709704,11,0,15.815,1049.5629233498,11.48294,7.49598594,1.24301841248,0,0,0,13.6, 10.3, -1.9,0,0,1024,1024,1024,1024,13.8,0,96,3.878,3.859,3.863,3.821,0,0,13.204,84.2,1048.5786713498,10.498688,6,P-GPS,
8120,2021-06-25 14:35:33,36.162454,-96.835595,10.498688,10.5643048,1038.0143665498,1048.5786713498,11.48294,0.223694,1.14601709704,11,0,15.815,1049.5629233498,11.48294,7.49598594,1.24301841248,0.223694,0,0,13.7, 10.1, -2,0,0,1024,1024,1024,1024,13.8,0,96,3.878,3.859,3.863,3.821,0,0,13.204,84.2,1048.5786713498,10.498688,6,P-GPS,
8270,2021-06-25 14:35:33,36.162454,-96.835595,10.826772,10.8923888,1038.0143665498,1048.9067553498,11.48294,0.31540854,1.14601709704,11,0,15.815,1049.5629233498,11.48294,7.49598594,1.24301841248,0.223694,0,-0.223694,13.6, 10, -1.3,0,0,1024,1024,1024,1024,13.8,0,96,3.878,3.859,3.863,3.821,0,0,13.204,84.2,1048.9067553498,10.826772,6,P-GPS,
8350,2021-06-25 14:35:33,36.162454,-96.835595,10.826772,10.8923888,1038.0143665498,1048.9067553498,11.48294,0.50107456,1.14601709704,11,0,15.815,1049.5629233498,11.48294,7.49598594,1.24301841248,0.223694,0,-0.447388,13.7, 11.2, -1.1,0,0,1024,1024,1024,1024,13.8,0,96,3.878,3.859,3.863,3.821,0,0,13.204,84.2,1048.9067553498,10.826772,6,P-GPS,
8470,2021-06-25 14:35:33,36.162453,-96.835595,10.826772,10.8923888,1038.0143665498,1048.9067553498,11.48294,0,0.956036776,11,0,15.815,1049.5629233498,11.48294,7.49598594,1.24301841248,0,0,0,13.6, 11.5, -1.1,0,0,1024,1024,1024,1024,13.8,0,96,3.878,3.859,3.863,3.821,0,0,13.204,84.2,1048.9067553498,10.826772,6,P-GPS,
8570,2021-06-25 14:35:33,36.162453,-96.835595,10.826772,10.8923888,1038.0143665498,1048.9067553498,11.48294,0,0.956036776,11,0,15.815,1049.5629233498,11.48294,7.49598594,1.24301841248,0,0,0,13.5, 11.5, -0.2,0,0,1024,1024,1024,1024,13.8,0,96,3.878,3.859,3.863,3.821,0,0,13.204,84.2,1048.9067553498,10.826772,6,P-GPS,
8680,2021-06-25 14:35:33,36.162453,-96.835596,10.826772,10.8595804,1038.0471749498,1048.9067553498,11.48294,0.223694,0.69294949724,11,0,15.815,1049.5629233498,11.48294,7.49598594,1.24301841248,0,0,-0.223694,13.6, 11.6, 0.4,0,0,1024,1024,1024,1024,13.8,0,96,3.878,3.859,3.863,3.821,0,0,13.204,84.2,1048.9067553498,10.826772,6,P-GPS,
8750,2021-06-25 14:35:33,36.162453,-96.835596,11.154856,11.1876644,1038.0471749498,1049.2348393498,11.154856,0.447388,0.69294949724,11,0,15.815,1049.5629233498,11.48294,7.49598594,1.24301841248,0,0,-0.447388,13.6, 11.5, 1.1,0,0,1024,1024,1024,1024,13.8,0,96,3.878,3.859,3.863,3.821,0,0,13.204,84.2,1049.2348393498,11.154856,6,P-GPS,
8840,2021-06-25 14:35:33,36.162454,-96.835596,11.154856,11.1876644,1038.0471749498,1049.2348393498,11.154856,0.223694,0.937828114,11,0,15.815,1049.5629233498,11.48294,7.49598594,1.24301841248,0,0,-0.223694,13.6, 11.5, 1.5,0,0,1024,1024,1024,1024,13.8,0,96,3.878,3.859,3.863,3.821,0,0,13.204,84.2,1049.2348393498,11.154856,6,P-GPS,
8900,2021-06-25 14:35:34,36.162454,-96.835596,11.154856,11.1876644,1038.0471749498,1049.2348393498,11.154856,0.31540854,0.937828114,11,0,15.815,1049.5629233498,11.48294,7.49598594,1.24301841248,0.223694,0,-0.223694,13.6, 12.6, 1.2,0,0,1024,1024,1024,1024,13.8,0,96,3.878,3.859,3.863,3.821,0,0,13.204,84.2,1049.2348393498,11.154856,6,P-GPS,
9010,2021-06-25 14:35:34,36.162454,-96.835596,11.154856,11.1876644,1038.0471749498,1049.2348393498,11.154856,0.31540854,0.937828114,11,0,15.76,1049.5629233498,11.48294,7.49598594,1.24301841248,0.223694,0,-0.223694,13.6, 13.3, 0.7,0,0,1024,1024,1024,1024,13.8,0,96,3.878,3.859,3.863,3.821,0,0,13.204,84.2,1049.2348393498,11.154856,6,P-GPS,
9190,2021-06-25 14:35:34,36.162454,-96.835596,11.154856,11.1876644,1038.0471749498,1049.2348393498,11.154856,0,0.937828114,11,0,15.76,1049.5629233498,11.48294,7.49598594,1.24301841248,0,0,0,13.6, 13.5, -0.1,0,0,1024,1024,1024,1024,13.8,0,96,3.878,3.859,3.863,3.821,0,0,13.204,84.2,1049.2348393498,11.154856,6,P-GPS,
9270,2021-06-25 14:35:34,36.162454,-96.835596,11.154856,11.1876644,1038.0471749498,1049.2348393498,10.826772,0,0.937828114,11,0,15.76,1049.5629233498,11.48294,7.49598594,1.24301841248,0,0,0,13.6, 13.1, -0.6,0,0,1024,1024,1024,1024,13.8,0,96,3.878,3.859,3.863,3.821,0,0,13.204,84.2,1049.2348393498,11.154856,6,P-GPS,
9430,2021-06-25 14:35:34,36.162454,-96.835596,11.154856,11.1876644,1038.0471749498,1049.2348393498,10.826772,0,0.937828114,11,0,15.76,1049.5629233498,11.48294,7.49598594,1.24301841248,0,0,0,13.7, 12.1, -0.4,0,0,1024,1024,1024,1024,13.8,0,96,3.878,3.859,3.863,3.821,0,0,13.204,84.2,1049.2348393498,11.154856,6,P-GPS,
9570,2021-06-25 14:35:34,36.162453,-96.835596,11.154856,11.1876644,1038.0471749498,1049.2348393498,10.826772,0.223694,0.69294949724,11,0,15.76,1049.5629233498,11.48294,7.49598594,1.24301841248,0,0,0.223694,13.6, 11.5, 0.1,0,0,1024,1024,1024,1024,13.8,0,96,3.878,3.859,3.863,3.821,0,0,13.204,84.2,1049.2348393498,11.154856,6,P-GPS,
9630,2021-06-25 14:35:34,36.162453,-96.835596,10.826772,10.8595804,1038.0471749498,1048.9067553498,10.826772,0.223694,0.69294949724,11,0,15.76,1049.5629233498,11.48294,7.49598594,1.24301841248,0,0,0.223694,13.7, 11.5, -0.1,0,0,1024,1024,1024,1024,13.7,0,96,3.878,3.859,3.863,3.821,0,0,13.204,84.2,1048.9067553498,10.826772,6,P-GPS,
9730,2021-06-25 14:35:34,36.162453,-96.835596,10.826772,10.8595804,1038.0471749498,1048.9067553498,10.498688,0.447388,0.69294949724,11,0,15.76,1049.5629233498,11.48294,7.49598594,1.24301841248,0,0,0.447388,13.6, 11.6, -1,0,0,1024,1024,1024,1024,13.7,0,96,3.878,3.859,3.863,3.821,0,0,13.204,84.2,1048.9067553498,10.826772,6,P-GPS,
9830,2021-06-25 14:35:34,36.162453,-96.835596,10.498688,10.5314964,1038.0471749498,1048.5786713498,10.498688,0.447388,0.69294949724,11,0,15.76,1049.5629233498,11.48294,7.49598594,1.24301841248,0,0,0.447388,13.6, 11.6, -1.2,0,0,1024,1024,1024,1024,13.7,0,96,3.878,3.859,3.863,3.821,0,0,13.204,84.2,1048.5786713498,10.498688,6,P-GPS,
9960,2021-06-25 14:35:35,36.162453,-96.835596,10.498688,10.5314964,1038.0471749498,1048.5786713498,10.498688,0.50107456,0.69294949724,11,0,15.76,1049.5629233498,11.48294,7.49598594,1.24301841248,0,-0.223694,0.447388,13.6, 11.4, -0.5,0,0,1024,1024,1024,1024,13.7,0,96,3.878,3.859,3.863,3.821,0,0,13.204,84.2,1048.5786713498,10.498688,6,P-GPS,
10040,2021-06-25 14:35:35,36.162453,-96.835596,10.498688,10.5314964,1038.0471749498,1048.5786713498,10.498688,0.223694,0.69294949724,11,0,15.869,1049.5629233498,11.48294,7.49598594,1.24301841248,0,-0.223694,0,13.7, 11.6, 1.1,0,0,1024,1024,1024,1024,13.7,0,96,3.878,3.859,3.863,3.821,0,0,13.358,86,1048.5786713498,10.498688,6,P-GPS,
10150,2021-06-25 14:35:35,36.162453,-96.835596,10.498688,10.5314964,1038.0471749498,1048.5786713498,10.498688,0,0.69294949724,11,0,15.869,1049.5629233498,11.48294,7.49598594,1.24301841248,0,0,0,13.8, 11.2, 2.1,0,0,1024,1024,1024,1024,13.7,0,96,3.878,3.859,3.863,3.821,0,0,13.358,86,1048.5786713498,10.498688,6,P-GPS,
10160,2021-06-25 14:35:35,36.162453,-96.835596,10.170604,10.2034124,1038.0471749498,1048.2505873498,10.498688,0,0.69294949724,11,0,15.869,1049.5629233498,11.48294,7.49598594,1.24301841248,0,0,0,13.7, 10.9, 0.7,0,0,1024,1024,1024,1024,13.7,0,96,3.878,3.859,3.863,3.821,0,0,13.358,86,1048.2505873498,10.170604,6,P-GPS,
10250,2021-06-25 14:35:35,36.162452,-96.835596,10.170604,10.2362208,1038.0143665498,1048.2505873498,10.498688,0,0.58912075376,11,0,15.869,1049.5629233498,11.48294,7.49598594,1.24301841248,0,0,0,13.6, 11.5, 0,0,0,1024,1024,1024,1024,13.7,0,96,3.878,3.859,3.863,3.821,0,0,13.358,86,1048.2505873498,10.170604,6,P-GPS,
10360,2021-06-25 14:35:35,36.162452,-96.835596,10.170604,10.2362208,1038.0143665498,1048.2505873498,10.498688,0,0.58912075376,11,0,15.869,1049.5629233498,11.48294,7.49598594,1.24301841248,0,0,0,13.6, 11.8, -0.5,0,0,1024,1024,1024,1024,13.8,0,96,3.878,3.859,3.863,3.821,0,0,13.358,86,1048.2505873498,10.170604,6,P-GPS,
10520,2021-06-25 14:35:35,36.162452,-96.835596,10.170604,10.2362208,1038.0143665498,1048.2505873498,10.498688,0.223694,0.58912075376,11,0,15.869,1049.5629233498,11.48294,7.49598594,1.24301841248,0,0,-0.223694,13.7, 11.4, -0.4,0,0,1024,1024,1024,1024,13.7,0,96,3.878,3.859,3.863,3.821,0,0,13.358,86,1048.2505873498,10.170604,6,P-GPS,
10650,2021-06-25 14:35:35,36.162452,-96.835596,10.170604,10.2362208,1038.0143665498,1048.2505873498,10.498688,0.223694,0.58912075376,11,0,15.869,1049.5629233498,11.48294,7.49598594,1.24301841248,0,0,-0.223694,13.7, 11, 0.7,0,0,1024,1024,1024,1024,13.7,0,96,3.878,3.859,3.863,3.821,0,0,13.358,86,1048.2505873498,10.170604,6,P-GPS,
10820,2021-06-25 14:35:35,36.162452,-96.835596,10.170604,10.2362208,1038.0143665498,1048.2505873498,10.498688,0,0.58912075376,11,0,15.869,1049.5629233498,11.48294,7.49598594,1.24301841248,0,0,0,13.7, 11.2, 1.7,0,0,1024,1024,1024,1024,13.7,0,96,3.878,3.859,3.863,3.821,0,0,13.358,86,1048.2505873498,10.170604,6,P-GPS,
10860,2021-06-25 14:35:35,36.162452,-96.835596,10.170604,10.2362208,1038.0143665498,1048.2505873498,10.498688,0.223694,0.58912075376,11,0,15.869,1049.5629233498,11.48294,7.49598594,1.24301841248,0,0.223694,0,13.7, 11.5, 1.1,0,0,1024,1024,1024,1024,13.7,0,96,3.878,3.859,3.863,3.821,0,0,13.358,86,1048.2505873498,10.170604,6,P-GPS,
10930,2021-06-25 14:35:36,36.162452,-96.835596,10.498688,10.5643048,1038.0143665498,1048.5786713498,10.498688,0.31540854,0.58912075376,11,0,15.869,1049.5629233498,11.48294,7.49598594,1.24301841248,0,0.223694,-0.223694,13.6, 11.7, -0.4,0,0,1024,1024,1024,1024,13.7,0,96,3.878,3.859,3.863,3.821,0,0,13.358,86,1048.5786713498,10.498688,6,P-GPS,
11050,2021-06-25 14:35:36,36.162452,-96.835596,10.498688,10.5643048,1038.0143665498,1048.5786713498,10.498688,0.223694,0.58912075376,11,0,15.869,1049.5629233498,11.48294,7.49598594,1.24301841248,0,0,-0.223694,13.6, 12.2, -1.6,0,0,1024,1024,1024,1024,13.7,0,96,3.878,3.859,3.863,3.821,0,0,13.358,86,1048.5786713498,10.498688,6,P-GPS,
11180,2021-06-25 14:35:36,36.162452,-96.835595,10.498688,10.5643048,1038.0143665498,1048.5786713498,10.498688,0.447388,0.88368113064,11,0,15.869,1049.5629233498,11.48294,7.49598594,1.24301841248,0,0,-0.447388,13.5, 12.5, -2.1,0,0,1024,1024,1024,1024,13.8,0,96,3.878,3.859,3.863,3.821,0,0,13.358,86,1048.5786713498,10.498688,6,P-GPS,
11350,2021-06-25 14:35:36,36.162452,-96.835595,10.826772,10.8923888,1038.0143665498,1048.9067553498,10.498688,0.447388,0.88368113064,11,0,15.869,1049.5629233498,11.48294,7.49598594,1.24301841248,0,0,-0.447388,13.5, 12.6, -2.2,0,0,1024,1024,1024,1024,13.7,0,96,3.878,3.859,3.863,3.821,0,0,13.358,86,1048.9067553498,10.826772,6,P-GPS,
11450,2021-06-25 14:35:36,36.162452,-96.835595,10.826772,10.8923888,1038.0143665498,1048.9067553498,10.498688,0.447388,0.88368113064,11,0,15.869,1049.5629233498,11.48294,7.49598594,1.24301841248,0,0,-0.447388,13.5, 12.7, -0.8,0,0,1024,1024,1024,1024,13.8,0,96,3.878,3.859,3.863,3.821,0,0,13.358,86,1048.9067553498,10.826772,6,P-GPS,
11550,2021-06-25 14:35:36,36.162452,-96.835595,11.154856,11.2204728,1038.0143665498,1049.2348393498,10.498688,0.671082,0.88368113064,11,0,15.869,1049.5629233498,11.48294,7.49598594,1.24301841248,0,0,-0.671082,13.6, 12.4, 1.2,0,0,1024,1024,1024,1024,13.7,0,96,3.878,3.859,3.863,3.821,0,0,13.358,86,1049.2348393498,11.154856,6,P-GPS,
11590,2021-06-25 14:35:36,36.162452,-96.835595,11.48294,11.5485568,1038.0143665498,1049.5629233498,10.498688,0.447388,0.88368113064,11,0,15.869,1049.5629233498,11.48294,7.49598594,1.24301841248,0,0,-0.447388,13.7, 12.3, 1.2,0,0,1024,1024,1024,1024,13.7,0,96,3.878,3.859,3.863,3.821,0,0,13.358,86,1049.5629233498,11.48294,6,P-GPS,
11700,2021-06-25 14:35:36,36.162452,-96.835595,11.48294,11.5485568,1038.0143665498,1049.5629233498,10.498688,0.447388,0.88368113064,11,0,15.869,1049.5629233498,11.48294,7.49598594,1.24301841248,0,0,-0.447388,13.6, 12.6, -0.1,0,0,1024,1024,1024,1024,13.7,0,96,3.878,3.859,3.863,3.821,0,0,13.358,86,1049.5629233498,11.48294,6,P-GPS,
11820,2021-06-25 14:35:36,36.162452,-96.835595,11.811024,11.8766408,1038.0143665498,1049.8910073498,10.498688,0.223694,0.88368113064,11,0,15.869,1049.8910073498,11.811024,7.49598594,1.24301841248,0,0,-0.223694,13.6, 12.8, -0.1,0,0,1024,1024,1024,1024,13.7,0,96,3.878,3.859,3.863,3.821,0,0,13.358,86,1049.8910073498,11.811024,6,P-GPS,
11900,2021-06-25 14:35:37,36.162452,-96.835595,11.811024,11.8766408,1038.0143665498,1049.8910073498,10.170604,0,0.88368113064,11,0,15.869,1049.8910073498,11.811024,7.49598594,1.24301841248,0,0,0,13.6, 12.9, 0,0,0,1024,1024,1024,1024,13.7,0,96,3.878,3.859,3.863,3.821,0,0,13.358,86,1049.8910073498,11.811024,6,P-GPS,
12020,2021-06-25 14:35:37,36.162452,-96.835595,11.811024,11.8766408,1038.0143665498,1049.8910073498,10.170604,0,0.88368113064,11,0,15.76,1049.8910073498,11.811024,7.49598594,1.24301841248,0,0,0,13.6, 13, -0.2,0,0,1024,1024,1024,1024,13.7,0,96,3.878,3.859,3.863,3.821,0,0,13.148,86,1049.8910073498,11.811024,6,P-GPS,
12110,2021-06-25 14:35:37,36.162452,-96.835595,11.811024,11.8766408,1038.0143665498,1049.8910073498,10.170604,0.223694,0.88368113064,11,0,15.76,1049.8910073498,11.811024,7.49598594,1.24301841248,0,0,0.223694,13.6, 12.5, -0.3,0,0,1024,1024,1024,1024,13.7,0,96,3.878,3.859,3.863,3.821,0,0,13.148,86,1049.8910073498,11.811024,6,P-GPS,
12220,2021-06-25 14:35:37,36.162452,-96.835595,11.811024,11.8766408,1038.0143665498,1049.8910073498,9.84252,0.447388,0.88368113064,11,0,15.76,1049.8910073498,11.811024,7.49598594,1.24301841248,0,0,0.447388,13.6, 12.5, -1,0,0,1024,1024,1024,1024,13.7,0,96,3.878,3.859,3.863,3.821,0,0,13.148,86,1049.8910073498,11.811024,6,P-GPS,
12320,2021-06-25 14:35:37,36.162452,-96.835595,11.48294,11.5485568,1038.0143665498,1049.5629233498,9.84252,0.223694,0.88368113064,11,0,15.76,1049.8910073498,11.811024,7.49598594,1.24301841248,0,0,0.223694,13.6, 12.5, -1.1,0,0,1229,1024,1024,1024,13.7,0,96,3.878,3.859,3.863,3.821,0,0,13.148,86,1049.5629233498,11.48294,6,P-GPS,
12440,2021-06-25 14:35:37,36.162452,-96.835595,11.48294,11.5485568,1038.0143665498,1049.5629233498,9.84252,0.447388,0.88368113064,11,0,15.76,1049.8910073498,11.811024,7.49598594,1.24301841248,0,0,0.447388,13.7, 9.8, -0.5,0,0,1209,1024,1024,1024,13.8,0,96,3.878,3.859,3.863,3.821,0,0,13.148,86,1049.5629233498,11.48294,6,P-GPS,
12470,2021-06-25 14:35:37,36.162452,-96.835595,11.154856,11.2204728,1038.0143665498,1049.2348393498,9.514436,0.447388,0.88368113064,11,0,15.76,1049.8910073498,11.811024,7.49598594,1.24301841248,0,0,0.447388,13.7, 7.4, -0.4,0,0,876,1024,1024,1024,13.7,0,96,3.878,3.859,3.863,3.821,0,0,13.148,86,1049.2348393498,11.154856,6,P-GPS,
12570,2021-06-25 14:35:37,36.162452,-96.835594,11.154856,11.2532812,1037.9815581498,1049.2348393498,9.514436,0.70687304,1.17824150752,11,0,15.76,1049.8910073498,11.811024,7.49598594,1.24301841248,0.223694,0,0.671082,13.8, 8.4, -0.4,0,0,634,1024,1024,1024,13.7,0,96,3.878,3.859,3.863,3.821,0,0,13.148,86,1049.2348393498,11.154856,6,P-GPS,
12680,2021-06-25 14:35:37,36.162452,-96.835594,10.826772,10.9251972,1037.9815581498,1048.9067553498,9.514436,0.74266408,1.17824150752,11,0,15.76,1049.8910073498,11.811024,7.49598594,1.24301841248,0.223694,0.223694,0.671082,13.8, 11.5, -0.6,0,0,668,1024,1024,1024,13.7,0,96,3.878,3.859,3.863,3.821,0,0,13.148,86,1048.9067553498,10.826772,6,P-GPS,
12810,2021-06-25 14:35:37,36.162452,-96.835594,10.498688,10.5971132,1037.9815581498,1048.5786713498,9.186352,0.223694,1.17824150752,11,0,15.76,1049.8910073498,11.811024,7.49598594,1.24301841248,0,0,0.223694,13.6, 16.3, -1,0,0,1269,1024,1024,1024,13.7,0,96,3.878,3.859,3.863,3.821,0,0,13.148,86,1048.5786713498,10.498688,6,P-GPS,
12850,2021-06-25 14:35:37,36.162452,-96.835594,10.498688,10.5971132,1037.9815581498,1048.5786713498,9.186352,0.447388,1.17824150752,11,0,15.76,1049.8910073498,11.811024,7.49598594,1.24301841248,-0.447388,0,0,13.6, 15.4, -0.7,0,0,1531,1024,1024,1024,13.7,0,96,3.878,3.859,3.863,3.821,0,0,13.148,86,1048.5786713498,10.498688,6,P-GPS,
12940,2021-06-25 14:35:38,36.162452,-96.835594,10.498688,10.5971132,1037.9815581498,1048.5786713498,9.186352,0.447388,1.17824150752,11,0,15.76,1049.8910073498,11.811024,7.49598594,1.24301841248,-0.447388,0,0,13.7, 9, -0.9,0,0,1236,1024,1024,1024,13.7,0,96,3.878,3.859,3.863,3.821,0,0,13.148,86,1048.5786713498,10.498688,6,P-GPS,
13040,2021-06-25 14:35:38,36.162452,-96.835594,10.498688,10.5971132,1037.9815581498,1048.5786713498,9.186352,0.223694,1.17824150752,11,0,15.76,1049.8910073498,11.811024,7.49598594,1.24301841248,-0.223694,0,0,13.8, 1, -1.2,0,0,1024,1024,1024,1024,13.7,0,96,3.878,3.859,3.863,3.821,0,0,13.682,86,1048.5786713498,10.498688,6,P-GPS,
13170,2021-06-25 14:35:38,36.162452,-96.835594,10.498688,10.5971132,1037.9815581498,1048.5786713498,9.186352,0.38699062,1.17824150752,11,0,15.76,1049.8910073498,11.811024,7.49598594,1.24301841248,0.223694,0.223694,0.223694,13.8, 3.1, -1.2,0,0,741,1024,1024,1024,13.8,0,96,3.878,3.859,3.863,3.821,0,0,13.682,86,1048.5786713498,10.498688,6,P-GPS,
13190,2021-06-25 14:35:38,36.162452,-96.835594,10.170604,10.2690292,1037.9815581498,1048.2505873498,9.186352,0.83661556,1.17824150752,11,0,15.76,1049.8910073498,11.811024,7.49598594,1.24301841248,0.671082,0.223694,0.447388,13.7, 7.6, -0.9,0,0,1024,1024,1024,1024,13.7,0,96,3.878,3.859,3.863,3.821,0,0,13.682,86,1048.2505873498,10.170604,6,P-GPS,
13280,2021-06-25 14:35:38,36.162452,-96.835593,10.170604,10.3018376,1037.9487497498,1048.2505873498,9.186352,0.5480503,1.4728018844,11,0,15.76,1049.8910073498,11.811024,7.49598594,1.4728018844,0.447388,0.223694,0.223694,13.7, 9.7, -1.1,0,0,1024,1024,1024,1024,13.7,0,96,3.878,3.859,3.863,3.821,0,0,13.682,86,1048.2505873498,10.170604,6,P-GPS,
13410,2021-06-25 14:35:38,36.162453,-96.835593,9.84252,9.9409452000001,1037.9815581498,1047.9225033498,9.186352,0.223694,1.51731960236,11,0,15.76,1049.8910073498,11.811024,7.49598594,1.51731960236,0.223694,0,0,13.7, 10.3, -1.4,0,0,1024,1024,1024,1024,13.7,0,96,3.878,3.859,3.863,3.821,0,0,13.682,86,1047.9225033498,9.84252,6,P-GPS,
13490,2021-06-25 14:35:38,36.162453,-96.835593,9.84252,9.9409452000001,1037.9815581498,1047.9225033498,9.186352,0.447388,1.51731960236,11,0,15.76,1049.8910073498,11.811024,7.49598594,1.51731960236,0.447388,0,0,13.6, 11.2, -1.5,0,0,1024,1024,1024,1024,13.7,0,96,3.878,3.859,3.863,3.821,0,0,13.682,86,1047.9225033498,9.84252,6,P-GPS,
13570,2021-06-25 14:35:38,36.162453,-96.835593,9.84252,9.9409452000001,1037.9815581498,1047.9225033498,9.186352,0.50107456,1.51731960236,11,0,15.76,1049.8910073498,11.811024,7.49598594,1.51731960236,0.447388,0,-0.223694,13.6, 11.8, -1.3,0,0,1024,1024,1024,1024,13.7,0,96,3.878,3.859,3.863,3.821,0,0,13.682,86,1047.9225033498,9.84252,6,P-GPS,
13650,2021-06-25 14:35:38,36.162454,-96.835593,9.84252,9.9409452000001,1037.9815581498,1047.9225033498,9.186352,0.50107456,1.64365490824,11,0,15.76,1049.8910073498,11.811024,7.49598594,1.64365490824,0.447388,0,-0.223694,13.6, 13, -1,0,0,1024,1024,1024,1024,13.7,0,96,3.878,3.859,3.863,3.821,0,0,13.682,86,1047.9225033498,9.84252,6,P-GPS,
13720,2021-06-25 14:35:38,36.162454,-96.835593,10.170604,10.2690292,1037.9815581498,1048.2505873498,9.186352,0.63305402,1.64365490824,11,0,15.76,1049.8910073498,11.811024,7.49598594,1.64365490824,0.447388,0,-0.447388,13.5, 13.7, -0.6,0,0,1024,1024,1024,1024,13.7,0,96,3.878,3.859,3.863,3.821,0,0,13.682,86,1048.2505873498,10.170604,6,P-GPS,
13800,2021-06-25 14:35:38,36.162454,-96.835593,10.498688,10.5971132,1037.9815581498,1048.5786713498,9.186352,0.70687304,1.64365490824,11,0,15.76,1049.8910073498,11.811024,7.49598594,1.64365490824,0.223694,0,-0.671082,13.4, 13.3, -0.3,0,0,1024,1024,1024,1024,13.7,0,96,3.878,3.859,3.863,3.821,0,0,13.682,86,1048.5786713498,10.498688,6,P-GPS,
13920,2021-06-25 14:35:39,36.162454,-96.835593,10.498688,10.5971132,1037.9815581498,1048.5786713498,9.186352,0.31540854,1.64365490824,11,0,15.76,1049.8910073498,11.811024,7.49598594,1.64365490824,0.223694,0,-0.223694,13.7, 12.6, 0,0,0,1024,1024,1024,1024,13.7,0,96,3.878,3.859,3.863,3.821,0,0,13.682,86,1048.5786713498,10.498688,6,P-GPS,
13990,2021-06-25 14:35:39,36.162454,-96.835593,10.498688,10.5971132,1037.9815581498,1048.5786713498,9.186352,0.50107456,1.64365490824,11,0,15.896,1049.8910073498,11.811024,7.49598594,1.64365490824,0.223694,0,-0.447388,13.8, 12.3, 0,0,0,1024,1024,1024,1024,13.8,0,96,3.968,3.955,3.962,3.923,0,0,14.21,86,1048.5786713498,10.498688,6,P-GPS,
14190,2021-06-25 14:35:39,36.162454,-96.835593,10.498688,10.5971132,1037.9815581498,1048.5786713498,9.186352,0.31540854,1.64365490824,11,0,15.896,1049.8910073498,11.811024,7.49598594,1.64365490824,0.223694,0,-0.223694,13.8, 11.1, -0.3,0,0,1024,1024,1024,1024,13.8,0,96,3.968,3.955,3.962,3.923,0,0,14.21,86,1048.5786713498,10.498688,6,P-GPS,
14260,2021-06-25 14:35:39,36.162454,-96.835593,10.826772,10.9251972,1037.9815581498,1048.9067553498,9.186352,0.50107456,1.64365490824,11,0,15.896,1049.8910073498,11.811024,7.49598594,1.64365490824,0.223694,0,-0.447388,13.7, 10.8, -0.9,0,0,1024,1024,1024,1024,13.7,0,96,3.968,3.955,3.962,3.923,0,0,14.21,86,1048.9067553498,10.826772,6,P-GPS,
14350,2021-06-25 14:35:39,36.162455,-96.835593,10.826772,10.8923888,1038.0143665498,1048.9067553498,9.186352,0.50107456,1.83498693536,11,0,15.896,1049.8910073498,11.811024,7.49598594,1.83498693536,0.447388,0,-0.223694,13.6, 11.8, -1.4,0,0,1024,1024,1024,1024,13.7,0,96,3.968,3.955,3.962,3.923,0,0,14.21,86,1048.9067553498,10.826772,6,P-GPS,
14430,2021-06-25 14:35:39,36.162455,-96.835593,10.826772,10.8923888,1038.0143665498,1048.9067553498,9.186352,0.223694,1.83498693536,11,0,15.896,1049.8910073498,11.811024,7.49598594,1.83498693536,0.223694,0,0,13.5, 13.1, -1.5,0,0,1024,1024,1024,1024,13.7,0,96,3.968,3.955,3.962,3.923,0,0,14.21,86,1048.9067553498,10.826772,6,P-GPS,
14540,2021-06-25 14:35:39,36.162455,-96.835594,10.498688,10.5643048,1038.0143665498,1048.5786713498,9.186352,0.31540854,1.60819230868,11,0,15.896,1049.8910073498,11.811024,7.49598594,1.83498693536,0.223694,-0.223694,0,13.6, 13.4, 0.1,0,0,1024,1024,1024,1024,13.7,0,96,3.968,3.955,3.962,3.923,0,0,14.21,86,1048.5786713498,10.498688,6,P-GPS,
14620,2021-06-25 14:35:39,36.162455,-96.835594,10.826772,10.8923888,1038.0143665498,1048.9067553498,9.186352,0.31540854,1.60819230868,11,0,15.896,1049.8910073498,11.811024,7.49598594,1.83498693536,0.223694,-0.223694,0,13.8, 12.3, 1.6,0,0,1024,1024,1024,1024,13.8,0,96,3.968,3.955,3.962,3.923,0,0,14.21,86,1048.9067553498,10.826772,6,P-GPS,
14690,2021-06-25 14:35:39,36.162455,-96.835594,10.826772,10.8923888,1038.0143665498,1048.9067553498,9.186352,0.31540854,1.60819230868,11,0,15.896,1049.8910073498,11.811024,7.49598594,1.83498693536,0.223694,0,-0.223694,13.8, 11.5, 2.5,0,0,1024,1024,1024,1024,13.7,0,96,3.968,3.955,3.962,3.923,0,0,14.21,86,1048.9067553498,10.826772,6,P-GPS,
14760,2021-06-25 14:35:39,36.162455,-96.835594,10.498688,10.5643048,1038.0143665498,1048.5786713498,9.186352,0.223694,1.60819230868,11,0,15.896,1049.8910073498,11.811024,7.49598594,1.83498693536,0.223694,0,0,13.9, 12.5, 1.9,0,0,1024,1024,1024,1024,13.7,0,96,3.968,3.955,3.962,3.923,0,0,14.21,86,1048.5786713498,10.498688,6,P-GPS,
14870,2021-06-25 14:35:39,36.162455,-96.835594,10.498688,10.5643048,1038.0143665498,1048.5786713498,9.186352,0.31540854,1.60819230868,11,0,15.896,1049.8910073498,11.811024,7.49598594,1.83498693536,0.223694,0,0.223694,13.6, 12.2, 0.1,0,0,1024,1024,1024,1024,13.7,0,96,3.968,3.955,3.962,3.923,0,0,14.21,86,1048.5786713498,10.498688,6,P-GPS,
14890,2021-06-25 14:35:40,36.162455,-96.835594,10.170604,10.2362208,1038.0143665498,1048.2505873498,9.186352,0.31540854,1.60819230868,11,0,15.896,1049.8910073498,11.811024,7.49598594,1.83498693536,0,-0.223694,0.223694,13.6, 11.8, 0.9,0,0,1024,1024,1024,1024,13.7,0,96,3.968,3.955,3.962,3.923,0,0,14.21,86,1048.2505873498,10.170604,6,P-GPS,
14970,2021-06-25 14:35:40,36.162455,-96.835595,10.170604,10.2034124,1038.0471749498,1048.2505873498,9.514436,0.31540854,1.406742171,11,0,15.679,1049.8910073498,11.811024,7.49598594,1.83498693536,0,-0.223694,0.223694,13.6, 12, 2.3,0,0,1024,1024,1024,1024,13.7,0,96,3.968,3.955,3.962,3.923,0,0,14.546,86,1048.2505873498,10.170604,6,P-GPS,
15070,2021-06-25 14:35:40,36.162455,-96.835595,10.170604,10.2034124,1038.0471749498,1048.2505873498,9.514436,0,1.406742171,11,0,15.679,1049.8910073498,11.811024,7.49598594,1.83498693536,0,0,0,13.8, 13, 2.6,0,0,1024,1024,1024,1024,13.7,0,96,3.968,3.955,3.962,3.923,0,0,14.546,86,1048.2505873498,10.170604,6,P-GPS,
15250,2021-06-25 14:35:40,36.162455,-96.835595,9.84252,9.8753284,1038.0471749498,1047.9225033498,9.514436,0,1.406742171,11,0,15.679,1049.8910073498,11.811024,7.49598594,1.83498693536,0,0,0,13.8, 12.8, 1.7,0,0,1024,1024,1024,1024,13.7,0,96,3.968,3.955,3.962,3.923,0,0,14.546,86,1047.9225033498,9.84252,6,P-GPS,
15330,2021-06-25 14:35:40,36.162455,-96.835595,9.84252,9.8753284,1038.0471749498,1047.9225033498,9.514436,0.223694,1.406742171,11,0,15.679,1049.8910073498,11.811024,7.49598594,1.83498693536,0,-0.223694,0,13.7, 13.2, 1.7,0,0,1024,1024,1024,1024,13.7,0,96,3.968,3.955,3.962,3.923,0,0,14.546,86,1047.9225033498,9.84252,6,P-GPS,
15410,2021-06-25 14:35:40,36.162455,-96.835595,10.170604,10.2034124,1038.0471749498,1048.2505873498,9.514436,0.50107456,1.406742171,11,0,15.679,1049.8910073498,11.811024,7.49598594,1.83498693536,0,-0.447388,-0.223694,13.9, 13.2, 3.5,0,0,1024,1024,1024,1024,13.7,0,96,3.968,3.955,3.962,3.923,0,0,14.546,86,1048.2505873498,10.170604,6,P-GPS,
15510,2021-06-25 14:35:40,36.162455,-96.835596,10.170604,10.170604,1038.0799833498,1048.2505873498,9.514436,0.63305402,1.24301841248,11,0,15.679,1049.8910073498,11.811024,7.49598594,1.83498693536,0,-0.447388,-0.447388,14, 12.3, 5.3,0,0,1024,1024,1024,1024,13.7,0,96,3.968,3.955,3.962,3.923,0,0,14.546,86,1048.2505873498,10.170604,6,P-GPS,
15690,2021-06-25 14:35:40,36.162455,-96.835596,10.498688,10.498688,1038.0799833498,1048.5786713498,9.514436,0.50107456,1.24301841248,11,0,15.679,1049.8910073498,11.811024,7.49598594,1.83498693536,0,-0.223694,-0.447388,14, 11.3, 6,0,0,1024,1024,1024,1024,13.7,0,96,3.968,3.955,3.962,3.923,0,0,14.546,86,1048.5786713498,10.498688,6,P-GPS,
15830,2021-06-25 14:35:40,36.162455,-96.835596,10.498688,10.498688,1038.0799833498,1048.5786713498,9.514436,0.447388,1.24301841248,11,0,15.679,1049.8910073498,11.811024,7.49598594,1.83498693536,0,0,-0.447388,14.1, 11.7, 4.5,0,0,1024,1024,1024,1024,13.7,0,96,3.968,3.955,3.962,3.923,0,0,14.546,86,1048.5786713498,10.498688,6,P-GPS,
15930,2021-06-25 14:35:41,36.162455,-96.835596,10.826772,10.826772,1038.0799833498,1048.9067553498,9.84252,0.223694,1.24301841248,11,0,15.679,1049.8910073498,11.811024,7.49598594,1.83498693536,0,0,-0.223694,14.1, 11.7, 3.6,0,0,1024,1024,1024,1024,13.7,0,96,3.968,3.955,3.962,3.923,0,0,14.546,86,1048.9067553498,10.826772,6,P-GPS,
16090,2021-06-25 14:35:41,36.162455,-96.835596,10.826772,10.826772,1038.0799833498,1048.9067553498,9.84252,0.70687304,1.24301841248,11,0,15.679,1049.8910073498,11.811024,7.49598594,1.83498693536,0,-0.223694,-0.671082,14.1, 10.8, 4,0,0,1024,1024,1024,1024,13.7,0,96,3.968,3.955,3.962,3.923,0,0,14.546,86,1048.9067553498,10.826772,6,P-GPS,
16210,2021-06-25 14:35:41,36.162455,-96.835596,11.154856,11.154856,1038.0799833498,1049.2348393498,9.84252,0.31540854,1.24301841248,11,0,15.679,1049.8910073498,11.811024,7.49598594,1.83498693536,0.223694,0,-0.223694,14.1, 12.6, 3.4,0,0,1024,1024,1024,1024,13.7,0,96,3.968,3.955,3.962,3.923,0,0,14.546,86,1049.2348393498,11.154856,6,P-GPS,
16270,2021-06-25 14:35:41,36.162455,-96.835596,11.154856,11.154856,1038.0799833498,1049.2348393498,9.84252,0.31540854,1.24301841248,11,0,15.679,1049.8910073498,11.811024,7.49598594,1.83498693536,0,-0.223694,-0.223694,13.8, 14.8, 2,0,0,1024,1024,1024,1024,13.7,0,96,3.968,3.955,3.962,3.923,0,0,14.546,86,1049.2348393498,11.154856,6,P-GPS,
16340,2021-06-25 14:35:41,36.162455,-96.835596,11.154856,11.154856,1038.0799833498,1049.2348393498,9.84252,0.223694,1.24301841248,11,0,15.679,1049.8910073498,11.811024,7.49598594,1.83498693536,0,-0.223694,0,13.8, 14.5, 3.5,0,0,1024,1024,1024,1024,13.7,0,96,3.968,3.955,3.962,3.923,0,0,14.546,86,1049.2348393498,11.154856,6,P-GPS,
16440,2021-06-25 14:35:41,36.162455,-96.835596,10.826772,10.826772,1038.0799833498,1048.9067553498,9.84252,0.38699062,1.24301841248,11,0,15.679,1049.8910073498,11.811024,7.49598594,1.83498693536,-0.223694,-0.223694,0.223694,13.8, 11.9, 5.4,0,0,1024,1024,1024,1024,13.7,0,96,3.968,3.955,3.962,3.923,0,0,14.546,86,1048.9067553498,10.826772,6,P-GPS,
16510,2021-06-25 14:35:41,36.162455,-96.835597,11.154856,11.154856,1038.0799833498,1049.2348393498,9.84252,0,1.13349084992,11,0,15.679,1049.8910073498,11.811024,7.49598594,1.83498693536,0,0,0,13.5, 10, 4.1,0,0,1024,1024,1024,1024,13.7,0,96,3.968,3.955,3.962,3.923,0,0,14.546,86,1049.2348393498,11.154856,6,P-GPS,
16580,2021-06-25 14:35:41,36.162455,-96.835597,11.154856,11.154856,1038.0799833498,1049.2348393498,9.84252,0.223694,1.13349084992,11,0,15.679,1049.8910073498,11.811024,7.49598594,1.83498693536,0,0,-0.223694,13.5, 9.9, 4.5,0,0,1024,1024,1024,1024,13.7,0,96,3.968,3.955,3.962,3.923,0,0,14.546,86,1049.2348393498,11.154856,6,P-GPS,
16670,2021-06-25 14:35:41,36.162454,-96.835597,11.154856,11.154856,1038.0799833498,1049.2348393498,9.84252,0.223694,0.786909474,11,0,15.679,1049.8910073498,11.811024,7.49598594,1.83498693536,0,0,-0.223694,13.7, 10.7, 5.1,0,0,1024,1024,1024,1024,13.6,0,96,3.968,3.955,3.962,3.923,0,0,14.546,86,1049.2348393498,11.154856,6,P-GPS,
16790,2021-06-25 14:35:41,36.162454,-96.835596,11.154856,11.1876644,1038.0471749498,1049.2348393498,9.84252,0,0.937828114,11,0,15.679,1049.8910073498,11.811024,7.49598594,1.83498693536,0,0,0,13.6, 11.1, 3.3,0,0,1024,1024,1024,1024,13.6,0,96,3.968,3.955,3.962,3.923,0,0,14.546,86,1049.2348393498,11.154856,6,P-GPS,
16890,2021-06-25 14:35:42,36.162454,-96.835596,11.154856,11.1876644,1038.0471749498,1049.2348393498,9.84252,0.223694,0.937828114,11,0,15.679,1049.8910073498,11.811024,7.49598594,1.83498693536,0,0,-0.223694,13.7, 10.5, 1.2,0,0,1024,1024,1024,1024,13.6,0,96,3.968,3.955,3.962,3.923,0,0,14.546,86,1049.2348393498,11.154856,6,P-GPS,
17010,2021-06-25 14:35:42,36.162454,-96.835596,11.48294,11.5157484,1038.0471749498,1049.5629233498,9.514436,0.447388,0.937828114,11,0,15.652,1049.8910073498,11.811024,7.49598594,1.83498693536,0,0,-0.447388,13.7, 12, 2.5,0,0,1024,1024,1024,1024,13.6,0,96,3.968,3.955,3.962,3.923,0,0,13.516,86,1049.5629233498,11.48294,6,P-GPS,
17100,2021-06-25 14:35:42,36.162454,-96.835596,11.48294,11.5157484,1038.0471749498,1049.5629233498,9.514436,0.447388,0.937828114,11,0,15.652,1049.8910073498,11.811024,7.49598594,1.83498693536,0,0,-0.447388,13.9, 13.6, 5,0,0,1024,1024,1024,1024,13.6,0,96,3.968,3.955,3.962,3.923,0,0,13.516,86,1049.5629233498,11.48294,6,P-GPS,
17230,2021-06-25 14:35:42,36.162455,-96.835596,11.48294,11.48294,1038.0799833498,1049.5629233498,9.514436,0,1.24301841248,11,0,15.652,1049.8910073498,11.811024,7.49598594,1.83498693536,0,0,0,14, 12.3, 4.9,0,0,1024,1024,1024,1024,13.6,0,96,3.968,3.955,3.962,3.923,0,0,13.516,86,1049.5629233498,11.48294,6,P-GPS,
17350,2021-06-25 14:35:42,36.162455,-96.835596,11.48294,11.48294,1038.0799833498,1049.5629233498,9.514436,0,1.24301841248,11,0,15.652,1049.8910073498,11.811024,7.49598594,1.83498693536,0,0,0,13.8, 11.7, 0.7,0,0,1024,1024,1024,1024,13.6,0,96,3.968,3.955,3.962,3.923,0,0,13.516,86,1049.5629233498,11.48294,6,P-GPS,
17400,2021-06-25 14:35:42,36.162455,-96.835596,11.154856,11.154856,1038.0799833498,1049.2348393498,9.514436,0.223694,1.24301841248,11,0,15.652,1049.8910073498,11.811024,7.49598594,1.83498693536,0,0,0.223694,14.1, 10.5, 1.6,0,0,1024,1024,1024,1024,13.6,0,96,3.968,3.955,3.962,3.923,0,0,13.516,86,1049.2348393498,11.154856,6,P-GPS,
17470,2021-06-25 14:35:42,36.162454,-96.835596,10.826772,10.8595804,1038.0471749498,1048.9067553498,9.186352,0.223694,0.937828114,11,0,15.652,1049.8910073498,11.811024,7.49598594,1.83498693536,0,0,0.223694,14, 9.8, 3.3,0,0,1024,1024,1024,1024,13.6,0,96,3.968,3.955,3.962,3.923,0,0,13.516,86,1048.9067553498,10.826772,6,P-GPS,
17520,2021-06-25 14:35:42,36.162454,-96.835596,10.826772,10.8595804,1038.0471749498,1048.9067553498,9.186352,0.50107456,0.937828114,11,0,15.652,1049.8910073498,11.811024,7.49598594,1.83498693536,-0.223694,0,0.447388,13.9, 9, 2.8,0,0,1024,1024,1024,1024,13.6,0,96,3.968,3.955,3.962,3.923,0,0,13.516,86,1048.9067553498,10.826772,6,P-GPS,
17600,2021-06-25 14:35:42,36.162454,-96.835596,10.498688,10.5314964,1038.0471749498,1048.5786713498,9.186352,0,0.937828114,11,0,15.652,1049.8910073498,11.811024,7.49598594,1.83498693536,0,0,0,13.8, 10.1, 3,0,0,1024,1024,1024,1024,13.6,0,96,3.968,3.955,3.962,3.923,0,0,13.516,86,1048.5786713498,10.498688,6,P-GPS,
17730,2021-06-25 14:35:42,36.162454,-96.835596,10.826772,10.8595804,1038.0471749498,1048.9067553498,9.186352,0,0.937828114,11,0,15.652,1049.8910073498,11.811024,7.49598594,1.83498693536,0,0,0,13.9, 10.9, 4,0,0,1024,1024,1024,1024,13.6,0,96,3.968,3.955,3.962,3.923,0,0,13.516,86,1048.9067553498,10.826772,6,P-GPS,
17910,2021-06-25 14:35:43,36.162454,-96.835596,10.498688,10.5314964,1038.0471749498,1048.5786713498,9.186352,0.223694,0.937828114,11,0,15.652,1049.8910073498,11.811024,7.49598594,1.83498693536,0,0,0.223694,13.8, 11.6, 2.6,0,0,1024,1024,1024,1024,13.6,0,96,3.968,3.955,3.962,3.923,0,0,13.516,86,1048.5786713498,10.498688,6,P-GPS,
18020,2021-06-25 14:35:43,36.162454,-96.835596,10.498688,10.5314964,1038.0471749498,1048.5786713498,9.186352,0,0.937828114,11,0,15.76,1049.8910073498,11.811024,7.49598594,1.83498693536,0,0,0,13.9, 11.2, 3.4,0,0,1024,1024,1024,1024,13.6,0,96,3.968,3.955,3.962,3.923,0,0,12.914,86,1048.5786713498,10.498688,6,P-GPS,
18120,2021-06-25 14:35:43,36.162454,-96.835596,10.498688,10.5314964,1038.0471749498,1048.5786713498,9.186352,0.223694,0.937828114,11,0,15.76,1049.8910073498,11.811024,7.49598594,1.83498693536,0,0,0.223694,13.9, 10.1, 3.9,0,0,1024,1024,1024,1024,13.6,0,96,3.968,3.955,3.962,3.923,0,0,12.914,86,1048.5786713498,10.498688,6,P-GPS,
18250,2021-06-25 14:35:43,36.162454,-96.835596,10.170604,10.2034124,1038.0471749498,1048.2505873498,8.858268,0.447388,0.937828114,11,0,15.76,1049.8910073498,11.811024,7.49598594,1.83498693536,0,0,0.447388,13.8, 10.1, 3.8,0,0,1024,1024,1024,1024,13.6,0,96,3.968,3.955,3.962,3.923,0,0,12.914,86,1048.2505873498,10.170604,6,P-GPS,
18330,2021-06-25 14:35:43,36.162454,-96.835596,10.170604,10.2034124,1038.0471749498,1048.2505873498,8.858268,0,0.937828114,11,0,15.76,1049.8910073498,11.811024,7.49598594,1.83498693536,0,0,0,13.8, 10.4, 3.9,0,0,1024,1024,1024,1024,13.6,0,96,3.968,3.955,3.962,3.923,0,0,12.914,86,1048.2505873498,10.170604,6,P-GPS,
18410,2021-06-25 14:35:43,36.162454,-96.835597,9.84252,9.84252,1038.0799833498,1047.9225033498,8.858268,0,0.786909474,11,0,15.76,1049.8910073498,11.811024,7.49598594,1.83498693536,0,0,0,13.9, 10.3, 4.7,0,0,1024,1024,1024,1024,13.6,0,96,3.968,3.955,3.962,3.923,0,0,12.914,86,1047.9225033498,9.84252,6,P-GPS,
18540,2021-06-25 14:35:43,36.162454,-96.835597,9.84252,9.84252,1038.0799833498,1047.9225033498,9.186352,0,0.786909474,11,0,15.76,1049.8910073498,11.811024,7.49598594,1.83498693536,0,0,0,13.8, 10.1, 4.9,0,0,1024,1024,1024,1024,13.6,0,96,3.968,3.955,3.962,3.923,0,0,12.914,86,1047.9225033498,9.84252,6,P-GPS,
18650,2021-06-25 14:35:43,36.162454,-96.835597,9.84252,9.84252,1038.0799833498,1047.9225033498,9.186352,0.223694,0.786909474,11,0,15.76,1049.8910073498,11.811024,7.49598594,1.83498693536,0,0,-0.223694,13.9, 9.9, 4.7,0,0,1024,1024,1024,1024,13.6,0,96,3.968,3.955,3.962,3.923,0,0,12.914,86,1047.9225033498,9.84252,6,P-GPS,
18730,2021-06-25 14:35:43,36.162454,-96.835597,9.84252,9.84252,1038.0799833498,1047.9225033498,9.186352,0.223694,0.786909474,11,0,15.76,1049.8910073498,11.811024,7.49598594,1.83498693536,0,0,-0.223694,13.8, 10.3, 4.7,0,0,1024,1024,1024,1024,13.6,0,96,3.968,3.955,3.962,3.923,0,0,12.914,86,1047.9225033498,9.84252,6,P-GPS,
18870,2021-06-25 14:35:43,36.162454,-96.835597,9.84252,9.84252,1038.0799833498,1047.9225033498,9.186352,0.223694,0.786909474,11,0,15.76,1049.8910073498,11.811024,7.49598594,1.83498693536,0,0,-0.223694,13.8, 10.4, 4.5,0,0,1024,1024,1024,1024,13.6,0,96,3.968,3.955,3.962,3.923,0,0,12.914,86,1047.9225033498,9.84252,6,P-GPS,
18920,2021-06-25 14:35:44,36.162453,-96.835597,9.84252,9.8753284,1038.0471749498,1047.9225033498,9.186352,0.447388,0.468914057,11,0,15.76,1049.8910073498,11.811024,7.49598594,1.83498693536,0,0,-0.447388,13.8, 11.2, 4.8,0,0,1024,1024,1024,1024,13.5,0,96,3.968,3.955,3.962,3.923,0,0,12.914,86,1047.9225033498,9.84252,6,P-GPS,
19070,2021-06-25 14:35:44,36.162453,-96.835597,10.170604,10.2034124,1038.0471749498,1048.2505873498,9.186352,0.447388,0.468914057,11,0,15.76,1049.8910073498,11.811024,7.49598594,1.83498693536,0,0,-0.447388,14, 10.9, 5.1,0,0,1024,1024,1024,1024,13.5,0,96,3.968,3.955,3.962,3.923,0,0,12.914,86,1048.2505873498,10.170604,6,P-GPS,
19110,2021-06-25 14:35:44,36.162453,-96.835596,10.170604,10.2034124,1038.0471749498,1048.2505873498,9.186352,0.70687304,0.69294949724,11,0,15.76,1049.8910073498,11.811024,7.49598594,1.83498693536,0,0.223694,-0.671082,14.2, 10.1, 3.2,0,0,1024,1024,1024,1024,13.5,0,96,3.968,3.955,3.962,3.923,0,0,12.914,86,1048.2505873498,10.170604,6,P-GPS,
19210,2021-06-25 14:35:44,36.162453,-96.835596,10.170604,10.2034124,1038.0471749498,1048.2505873498,9.186352,0.223694,0.69294949724,11,0,15.76,1049.8910073498,11.811024,7.49598594,1.83498693536,0,0.223694,0,14.2, 9.8, 3,0,0,1024,1024,1024,1024,13.5,0,96,3.968,3.955,3.962,3.923,0,0,12.914,86,1048.2505873498,10.170604,6,P-GPS,
19300,2021-06-25 14:35:44,36.162453,-96.835596,10.170604,10.2034124,1038.0471749498,1048.2505873498,9.514436,0.223694,0.69294949724,11,0,15.76,1049.8910073498,11.811024,7.49598594,1.83498693536,0,0.223694,0,14.3, 9.5, 2.8,0,0,1024,1024,1024,1024,13.5,0,96,3.968,3.955,3.962,3.923,0,0,12.914,86,1048.2505873498,10.170604,6,P-GPS,
19490,2021-06-25 14:35:44,36.162453,-96.835596,9.84252,9.8753284,1038.0471749498,1047.9225033498,9.514436,0.38699062,0.69294949724,11,0,15.76,1049.8910073498,11.811024,7.49598594,1.83498693536,-0.223694,0.223694,-0.223694,13.8, 10.4, 0,0,0,1024,1024,1024,1024,13.5,0,96,3.968,3.955,3.962,3.923,0,0,12.914,86,1047.9225033498,9.84252,6,P-GPS,
19570,2021-06-25 14:35:44,36.162453,-96.835596,10.170604,10.2034124,1038.0471749498,1048.2505873498,9.514436,0.5480503,0.69294949724,11,0,15.76,1049.8910073498,11.811024,7.49598594,1.83498693536,-0.223694,0.223694,-0.447388,13.6, 10.2, -0.2,0,0,1024,1024,1024,1024,13.5,0,96,3.968,3.955,3.962,3.923,0,0,12.914,86,1048.2505873498,10.170604,6,P-GPS,
